{
    "Porto Seguro, BR":     {
        "cityName": "Porto Seguro, BR",
        "timeZone": "America/Bahia",
        "lon": "-39.06472",
        "lat": "-16.44972"
    },
    "Guanhães, BR":     {
        "cityName": "Guanhães, BR",
        "timeZone": "America/Sao_Paulo",
        "lon": "-42.9325",
        "lat": "-18.775"
    },
    "Barra Velha, BR":     {
        "cityName": "Barra Velha, BR",
        "timeZone": "America/Sao_Paulo",
        "lon": "-48.68472",
        "lat": "-26.63222"
    },
    "Eusébio, BR":     {
        "cityName": "Eusébio, BR",
        "timeZone": "America/Fortaleza",
        "lon": "-38.45056",
        "lat": "-3.89"
    },
    "Paulista, BR":     {
        "cityName": "Paulista, BR",
        "timeZone": "America/Recife",
        "lon": "-34.87306",
        "lat": "-7.94083"
    },
    "Sorocaba, BR":     {
        "cityName": "Sorocaba, BR",
        "timeZone": "America/Sao_Paulo",
        "lon": "-47.45806",
        "lat": "-23.50167"
    },
    "Esmeraldas, BR":     {
        "cityName": "Esmeraldas, BR",
        "timeZone": "America/Sao_Paulo",
        "lon": "-44.31389",
        "lat": "-19.7625"
    },
    "Diamantina, BR":     {
        "cityName": "Diamantina, BR",
        "timeZone": "America/Sao_Paulo",
        "lon": "-43.60345",
        "lat": "-18.24692"
    },
    "Cruzeiro do Sul, BR":     {
        "cityName": "Cruzeiro do Sul, BR",
        "timeZone": "America/Rio_Branco",
        "lon": "-72.67756",
        "lat": "-7.62759"
    },
    "Guanambi, BR":     {
        "cityName": "Guanambi, BR",
        "timeZone": "America/Bahia",
        "lon": "-42.78139",
        "lat": "-14.22333"
    },
    "Sertânia, BR":     {
        "cityName": "Sertânia, BR",
        "timeZone": "America/Recife",
        "lon": "-37.26444",
        "lat": "-8.07361"
    },
    "Cabo Frio, BR":     {
        "cityName": "Cabo Frio, BR",
        "timeZone": "America/Sao_Paulo",
        "lon": "-42.02622",
        "lat": "-22.88717"
    },
    "Taiobeiras, BR":     {
        "cityName": "Taiobeiras, BR",
        "timeZone": "America/Sao_Paulo",
        "lon": "-42.23306",
        "lat": "-15.80778"
    },
    "Matriz de Camaragibe, BR":     {
        "cityName": "Matriz de Camaragibe, BR",
        "timeZone": "America/Maceio",
        "lon": "-35.53333",
        "lat": "-9.15167"
    },
    "Buerarema, BR":     {
        "cityName": "Buerarema, BR",
        "timeZone": "America/Bahia",
        "lon": "-39.29972",
        "lat": "-14.95944"
    },
    "Igrejinha, BR":     {
        "cityName": "Igrejinha, BR",
        "timeZone": "America/Sao_Paulo",
        "lon": "-50.79028",
        "lat": "-29.57444"
    },
    "São Joaquim, BR":     {
        "cityName": "São Joaquim, BR",
        "timeZone": "America/Sao_Paulo",
        "lon": "-49.93167",
        "lat": "-28.29389"
    },
    "Rio das Pedras, BR":     {
        "cityName": "Rio das Pedras, BR",
        "timeZone": "America/Sao_Paulo",
        "lon": "-47.60611",
        "lat": "-22.84333"
    },
    "Ipaba, BR":     {
        "cityName": "Ipaba, BR",
        "timeZone": "America/Sao_Paulo",
        "lon": "-42.41944",
        "lat": "-19.41361"
    },
    "São José, BR":     {
        "cityName": "São José, BR",
        "timeZone": "America/Sao_Paulo",
        "lon": "-49.1632",
        "lat": "-28.21171"
    },
    "Cabo, BR":     {
        "cityName": "Cabo, BR",
        "timeZone": "America/Recife",
        "lon": "-35.03333",
        "lat": "-8.28333"
    },
    "Benevides, BR":     {
        "cityName": "Benevides, BR",
        "timeZone": "America/Belem",
        "lon": "-48.24472",
        "lat": "-1.36139"
    },
    "Una, BR":     {
        "cityName": "Una, BR",
        "timeZone": "America/Bahia",
        "lon": "-39.07528",
        "lat": "-15.29333"
    },
    "Atibaia, BR":     {
        "cityName": "Atibaia, BR",
        "timeZone": "America/Sao_Paulo",
        "lon": "-46.55028",
        "lat": "-23.11694"
    },
    "Viçosa, BR":     {
        "cityName": "Viçosa, BR",
        "timeZone": "America/Sao_Paulo",
        "lon": "-42.88194",
        "lat": "-20.75389"
    },
    "Jacutinga, BR":     {
        "cityName": "Jacutinga, BR",
        "timeZone": "America/Sao_Paulo",
        "lon": "-46.61222",
        "lat": "-22.28556"
    },
    "Pelotas, BR":     {
        "cityName": "Pelotas, BR",
        "timeZone": "America/Sao_Paulo",
        "lon": "-52.3425",
        "lat": "-31.77194"
    },
    "Bariri, BR":     {
        "cityName": "Bariri, BR",
        "timeZone": "America/Sao_Paulo",
        "lon": "-48.74028",
        "lat": "-22.07444"
    },
    "Timbiras, BR":     {
        "cityName": "Timbiras, BR",
        "timeZone": "America/Fortaleza",
        "lon": "-43.94056",
        "lat": "-4.25528"
    },
    "Ubatã, BR":     {
        "cityName": "Ubatã, BR",
        "timeZone": "America/Bahia",
        "lon": "-39.52641",
        "lat": "-14.20906"
    },
    "Igarapé Açu, BR":     {
        "cityName": "Igarapé Açu, BR",
        "timeZone": "America/Belem",
        "lon": "-47.62",
        "lat": "-1.12889"
    },
    "Vassouras, BR":     {
        "cityName": "Vassouras, BR",
        "timeZone": "America/Sao_Paulo",
        "lon": "-43.6625",
        "lat": "-22.40389"
    },
    "Brusque, BR":     {
        "cityName": "Brusque, BR",
        "timeZone": "America/Sao_Paulo",
        "lon": "-48.91281",
        "lat": "-27.09795"
    },
    "Paracatu, BR":     {
        "cityName": "Paracatu, BR",
        "timeZone": "America/Sao_Paulo",
        "lon": "-46.87472",
        "lat": "-17.22222"
    },
    "Rio Real, BR":     {
        "cityName": "Rio Real, BR",
        "timeZone": "America/Bahia",
        "lon": "-37.93278",
        "lat": "-11.48472"
    },
    "Espírito Santo do Pinhal, BR":     {
        "cityName": "Espírito Santo do Pinhal, BR",
        "timeZone": "America/Sao_Paulo",
        "lon": "-46.68278",
        "lat": "-22.11583"
    },
    "Orleans, BR":     {
        "cityName": "Orleans, BR",
        "timeZone": "America/Sao_Paulo",
        "lon": "-49.29139",
        "lat": "-28.35889"
    },
    "Arapongas, BR":     {
        "cityName": "Arapongas, BR",
        "timeZone": "America/Sao_Paulo",
        "lon": "-51.42444",
        "lat": "-23.41944"
    },
    "Teresópolis, BR":     {
        "cityName": "Teresópolis, BR",
        "timeZone": "America/Sao_Paulo",
        "lon": "-42.97822",
        "lat": "-22.4167"
    },
    "Unaí, BR":     {
        "cityName": "Unaí, BR",
        "timeZone": "America/Sao_Paulo",
        "lon": "-46.90611",
        "lat": "-16.3575"
    },
    "Guarulhos, BR":     {
        "cityName": "Guarulhos, BR",
        "timeZone": "America/Sao_Paulo",
        "lon": "-46.53333",
        "lat": "-23.46278"
    },
    "Crateús, BR":     {
        "cityName": "Crateús, BR",
        "timeZone": "America/Fortaleza",
        "lon": "-40.6775",
        "lat": "-5.17833"
    },
    "Cajati, BR":     {
        "cityName": "Cajati, BR",
        "timeZone": "America/Sao_Paulo",
        "lon": "-48.12278",
        "lat": "-24.73611"
    },
    "São Lourenço do Sul, BR":     {
        "cityName": "São Lourenço do Sul, BR",
        "timeZone": "America/Sao_Paulo",
        "lon": "-51.97833",
        "lat": "-31.36528"
    },
    "Caeté, BR":     {
        "cityName": "Caeté, BR",
        "timeZone": "America/Sao_Paulo",
        "lon": "-43.66972",
        "lat": "-19.88"
    },
    "Medianeira, BR":     {
        "cityName": "Medianeira, BR",
        "timeZone": "America/Sao_Paulo",
        "lon": "-54.09389",
        "lat": "-25.29528"
    },
    "Três Lagoas, BR":     {
        "cityName": "Três Lagoas, BR",
        "timeZone": "America/Campo_Grande",
        "lon": "-51.70338",
        "lat": "-20.78765"
    },
    "Aripuanã, BR":     {
        "cityName": "Aripuanã, BR",
        "timeZone": "America/Cuiaba",
        "lon": "-60.63333",
        "lat": "-9.16667"
    },
    "Soledade, BR":     {
        "cityName": "Soledade, BR",
        "timeZone": "America/Sao_Paulo",
        "lon": "-52.51028",
        "lat": "-28.81833"
    },
    "Barrinha, BR":     {
        "cityName": "Barrinha, BR",
        "timeZone": "America/Sao_Paulo",
        "lon": "-48.16389",
        "lat": "-21.19361"
    },
    "Juiz de Fora, BR":     {
        "cityName": "Juiz de Fora, BR",
        "timeZone": "America/Sao_Paulo",
        "lon": "-43.35028",
        "lat": "-21.76417"
    },
    "Monte Aprazível, BR":     {
        "cityName": "Monte Aprazível, BR",
        "timeZone": "America/Sao_Paulo",
        "lon": "-49.71417",
        "lat": "-20.7725"
    },
    "Santana de Parnaíba, BR":     {
        "cityName": "Santana de Parnaíba, BR",
        "timeZone": "America/Sao_Paulo",
        "lon": "-46.91778",
        "lat": "-23.44417"
    },
    "Montenegro, BR":     {
        "cityName": "Montenegro, BR",
        "timeZone": "America/Sao_Paulo",
        "lon": "-51.46111",
        "lat": "-29.68861"
    },
    "Itápolis, BR":     {
        "cityName": "Itápolis, BR",
        "timeZone": "America/Sao_Paulo",
        "lon": "-48.81278",
        "lat": "-21.59556"
    },
    "Iperó, BR":     {
        "cityName": "Iperó, BR",
        "timeZone": "America/Sao_Paulo",
        "lon": "-47.68861",
        "lat": "-23.35028"
    },
    "Xique Xique, BR":     {
        "cityName": "Xique Xique, BR",
        "timeZone": "America/Bahia",
        "lon": "-42.72815",
        "lat": "-10.82294"
    },
    "Paulo Afonso, BR":     {
        "cityName": "Paulo Afonso, BR",
        "timeZone": "America/Bahia",
        "lon": "-38.21472",
        "lat": "-9.40611"
    },
    "Pinheiral, BR":     {
        "cityName": "Pinheiral, BR",
        "timeZone": "America/Sao_Paulo",
        "lon": "-44.00056",
        "lat": "-22.51278"
    },
    "João Câmara, BR":     {
        "cityName": "João Câmara, BR",
        "timeZone": "America/Fortaleza",
        "lon": "-35.81972",
        "lat": "-5.5375"
    },
    "Leme, BR":     {
        "cityName": "Leme, BR",
        "timeZone": "America/Sao_Paulo",
        "lon": "-47.39028",
        "lat": "-22.18556"
    },
    "Curitiba, BR":     {
        "cityName": "Curitiba, BR",
        "timeZone": "America/Sao_Paulo",
        "lon": "-49.27306",
        "lat": "-25.42778"
    },
    "Lagoa do Itaenga, BR":     {
        "cityName": "Lagoa do Itaenga, BR",
        "timeZone": "America/Recife",
        "lon": "-35.29028",
        "lat": "-7.93611"
    },
    "Barretos, BR":     {
        "cityName": "Barretos, BR",
        "timeZone": "America/Sao_Paulo",
        "lon": "-48.56778",
        "lat": "-20.55722"
    },
    "Ipameri, BR":     {
        "cityName": "Ipameri, BR",
        "timeZone": "America/Sao_Paulo",
        "lon": "-48.15972",
        "lat": "-17.72194"
    },
    "Vilhena, BR":     {
        "cityName": "Vilhena, BR",
        "timeZone": "America/Porto_Velho",
        "lon": "-60.14583",
        "lat": "-12.74056"
    },
    "Itapira, BR":     {
        "cityName": "Itapira, BR",
        "timeZone": "America/Sao_Paulo",
        "lon": "-46.82167",
        "lat": "-22.43611"
    },
    "Orós, BR":     {
        "cityName": "Orós, BR",
        "timeZone": "America/Fortaleza",
        "lon": "-38.91361",
        "lat": "-6.24444"
    },
    "Colinas, BR":     {
        "cityName": "Colinas, BR",
        "timeZone": "America/Fortaleza",
        "lon": "-44.24917",
        "lat": "-6.02583"
    },
    "São Roque, BR":     {
        "cityName": "São Roque, BR",
        "timeZone": "America/Sao_Paulo",
        "lon": "-47.13528",
        "lat": "-23.52917"
    },
    "São Jerônimo, BR":     {
        "cityName": "São Jerônimo, BR",
        "timeZone": "America/Sao_Paulo",
        "lon": "-51.72222",
        "lat": "-29.95917"
    },
    "Poços de Caldas, BR":     {
        "cityName": "Poços de Caldas, BR",
        "timeZone": "America/Sao_Paulo",
        "lon": "-46.56139",
        "lat": "-21.78778"
    },
    "João Pinheiro, BR":     {
        "cityName": "João Pinheiro, BR",
        "timeZone": "America/Sao_Paulo",
        "lon": "-46.1725",
        "lat": "-17.7425"
    },
    "Butiá, BR":     {
        "cityName": "Butiá, BR",
        "timeZone": "America/Sao_Paulo",
        "lon": "-51.96222",
        "lat": "-30.11972"
    },
    "Penha, BR":     {
        "cityName": "Penha, BR",
        "timeZone": "America/Sao_Paulo",
        "lon": "-48.64583",
        "lat": "-26.76944"
    },
    "Seabra, BR":     {
        "cityName": "Seabra, BR",
        "timeZone": "America/Bahia",
        "lon": "-41.77049",
        "lat": "-12.41713"
    },
    "Pederneiras, BR":     {
        "cityName": "Pederneiras, BR",
        "timeZone": "America/Sao_Paulo",
        "lon": "-48.775",
        "lat": "-22.35167"
    },
    "Pitanga, BR":     {
        "cityName": "Pitanga, BR",
        "timeZone": "America/Sao_Paulo",
        "lon": "-51.76139",
        "lat": "-24.75722"
    },
    "Coaraci, BR":     {
        "cityName": "Coaraci, BR",
        "timeZone": "America/Bahia",
        "lon": "-39.55111",
        "lat": "-14.64083"
    },
    "Bastos, BR":     {
        "cityName": "Bastos, BR",
        "timeZone": "America/Sao_Paulo",
        "lon": "-50.73389",
        "lat": "-21.92194"
    },
    "Cururupu, BR":     {
        "cityName": "Cururupu, BR",
        "timeZone": "America/Fortaleza",
        "lon": "-44.86833",
        "lat": "-1.82833"
    },
    "Lins, BR":     {
        "cityName": "Lins, BR",
        "timeZone": "America/Sao_Paulo",
        "lon": "-49.7425",
        "lat": "-21.67861"
    },
    "Sena Madureira, BR":     {
        "cityName": "Sena Madureira, BR",
        "timeZone": "America/Rio_Branco",
        "lon": "-68.67245",
        "lat": "-9.06341"
    },
    "Ouro Preto do Oeste, BR":     {
        "cityName": "Ouro Preto do Oeste, BR",
        "timeZone": "America/Porto_Velho",
        "lon": "-62.21583",
        "lat": "-10.74806"
    },
    "São Borja, BR":     {
        "cityName": "São Borja, BR",
        "timeZone": "America/Sao_Paulo",
        "lon": "-56.00444",
        "lat": "-28.66056"
    },
    "Cerquilho, BR":     {
        "cityName": "Cerquilho, BR",
        "timeZone": "America/Sao_Paulo",
        "lon": "-47.74361",
        "lat": "-23.165"
    },
    "Encantado, BR":     {
        "cityName": "Encantado, BR",
        "timeZone": "America/Sao_Paulo",
        "lon": "-51.86972",
        "lat": "-29.23611"
    },
    "Arcoverde, BR":     {
        "cityName": "Arcoverde, BR",
        "timeZone": "America/Recife",
        "lon": "-37.05389",
        "lat": "-8.41889"
    },
    "Itaporanga, BR":     {
        "cityName": "Itaporanga, BR",
        "timeZone": "America/Fortaleza",
        "lon": "-38.15028",
        "lat": "-7.30444"
    },
    "Jacarezinho, BR":     {
        "cityName": "Jacarezinho, BR",
        "timeZone": "America/Sao_Paulo",
        "lon": "-49.96944",
        "lat": "-23.16056"
    },
    "Viradouro, BR":     {
        "cityName": "Viradouro, BR",
        "timeZone": "America/Sao_Paulo",
        "lon": "-48.29694",
        "lat": "-20.87306"
    },
    "Guararema, BR":     {
        "cityName": "Guararema, BR",
        "timeZone": "America/Sao_Paulo",
        "lon": "-46.035",
        "lat": "-23.415"
    },
    "Betim, BR":     {
        "cityName": "Betim, BR",
        "timeZone": "America/Sao_Paulo",
        "lon": "-44.19833",
        "lat": "-19.96778"
    },
    "Ceará Mirim, BR":     {
        "cityName": "Ceará Mirim, BR",
        "timeZone": "America/Fortaleza",
        "lon": "-35.42556",
        "lat": "-5.63444"
    },
    "Charqueadas, BR":     {
        "cityName": "Charqueadas, BR",
        "timeZone": "America/Sao_Paulo",
        "lon": "-51.62528",
        "lat": "-29.95472"
    },
    "Rio Grande, BR":     {
        "cityName": "Rio Grande, BR",
        "timeZone": "America/Sao_Paulo",
        "lon": "-52.09861",
        "lat": "-32.035"
    },
    "Itaperuna, BR":     {
        "cityName": "Itaperuna, BR",
        "timeZone": "America/Sao_Paulo",
        "lon": "-41.88778",
        "lat": "-21.205"
    },
    "Santana, BR":     {
        "cityName": "Santana, BR",
        "timeZone": "America/Belem",
        "lon": "-51.18167",
        "lat": "-0.05833"
    },
    "Campo Verde, BR":     {
        "cityName": "Campo Verde, BR",
        "timeZone": "America/Campo_Grande",
        "lon": "-54.06667",
        "lat": "-20.41667"
    },
    "Barão de Cocais, BR":     {
        "cityName": "Barão de Cocais, BR",
        "timeZone": "America/Sao_Paulo",
        "lon": "-43.48722",
        "lat": "-19.94583"
    },
    "Mirandopólis, BR":     {
        "cityName": "Mirandopólis, BR",
        "timeZone": "America/Sao_Paulo",
        "lon": "-51.10167",
        "lat": "-21.13361"
    },
    "Manacapuru, BR":     {
        "cityName": "Manacapuru, BR",
        "timeZone": "America/Manaus",
        "lon": "-60.62056",
        "lat": "-3.29972"
    },
    "Aparecida, BR":     {
        "cityName": "Aparecida, BR",
        "timeZone": "America/Sao_Paulo",
        "lon": "-45.22972",
        "lat": "-22.84694"
    },
    "Muriaé, BR":     {
        "cityName": "Muriaé, BR",
        "timeZone": "America/Sao_Paulo",
        "lon": "-42.36639",
        "lat": "-21.13056"
    },
    "Macapá, BR":     {
        "cityName": "Macapá, BR",
        "timeZone": "America/Belem",
        "lon": "-51.06639",
        "lat": "0.03889"
    },
    "Ipiaú, BR":     {
        "cityName": "Ipiaú, BR",
        "timeZone": "America/Bahia",
        "lon": "-39.73948",
        "lat": "-14.13449"
    },
    "Tobias Barreto, BR":     {
        "cityName": "Tobias Barreto, BR",
        "timeZone": "America/Maceio",
        "lon": "-37.99833",
        "lat": "-11.18389"
    },
    "Itanhaém, BR":     {
        "cityName": "Itanhaém, BR",
        "timeZone": "America/Sao_Paulo",
        "lon": "-46.78889",
        "lat": "-24.18306"
    },
    "Livramento do Brumado, BR":     {
        "cityName": "Livramento do Brumado, BR",
        "timeZone": "America/Bahia",
        "lon": "-41.84564",
        "lat": "-13.65145"
    },
    "Floriano, BR":     {
        "cityName": "Floriano, BR",
        "timeZone": "America/Fortaleza",
        "lon": "-43.0225",
        "lat": "-6.76694"
    },
    "Itaqui, BR":     {
        "cityName": "Itaqui, BR",
        "timeZone": "America/Sao_Paulo",
        "lon": "-56.55306",
        "lat": "-29.12528"
    },
    "Curitibanos, BR":     {
        "cityName": "Curitibanos, BR",
        "timeZone": "America/Sao_Paulo",
        "lon": "-50.58444",
        "lat": "-27.28278"
    },
    "Descalvado, BR":     {
        "cityName": "Descalvado, BR",
        "timeZone": "America/Sao_Paulo",
        "lon": "-47.61944",
        "lat": "-21.90389"
    },
    "Santana do Livramento, BR":     {
        "cityName": "Santana do Livramento, BR",
        "timeZone": "America/Sao_Paulo",
        "lon": "-55.53278",
        "lat": "-30.89083"
    },
    "Mogi Guaçu, BR":     {
        "cityName": "Mogi Guaçu, BR",
        "timeZone": "America/Sao_Paulo",
        "lon": "-46.94552",
        "lat": "-22.3677"
    },
    "Adamantina, BR":     {
        "cityName": "Adamantina, BR",
        "timeZone": "America/Sao_Paulo",
        "lon": "-51.0725",
        "lat": "-21.68528"
    },
    "Cordeirópolis, BR":     {
        "cityName": "Cordeirópolis, BR",
        "timeZone": "America/Sao_Paulo",
        "lon": "-47.45667",
        "lat": "-22.48194"
    },
    "Astorga, BR":     {
        "cityName": "Astorga, BR",
        "timeZone": "America/Sao_Paulo",
        "lon": "-51.66556",
        "lat": "-23.2325"
    },
    "Resplendor, BR":     {
        "cityName": "Resplendor, BR",
        "timeZone": "America/Sao_Paulo",
        "lon": "-41.25528",
        "lat": "-19.32556"
    },
    "Condado, BR":     {
        "cityName": "Condado, BR",
        "timeZone": "America/Recife",
        "lon": "-35.10583",
        "lat": "-7.58583"
    },
    "Palmares, BR":     {
        "cityName": "Palmares, BR",
        "timeZone": "America/Recife",
        "lon": "-35.59167",
        "lat": "-8.68333"
    },
    "Mata de São João, BR":     {
        "cityName": "Mata de São João, BR",
        "timeZone": "America/Bahia",
        "lon": "-38.29917",
        "lat": "-12.53028"
    },
    "Beberibe, BR":     {
        "cityName": "Beberibe, BR",
        "timeZone": "America/Fortaleza",
        "lon": "-38.13056",
        "lat": "-4.17972"
    },
    "Ituiutaba, BR":     {
        "cityName": "Ituiutaba, BR",
        "timeZone": "America/Sao_Paulo",
        "lon": "-49.46212",
        "lat": "-18.97428"
    },
    "Goiana, BR":     {
        "cityName": "Goiana, BR",
        "timeZone": "America/Recife",
        "lon": "-35.0025",
        "lat": "-7.56056"
    },
    "Bragança Paulista, BR":     {
        "cityName": "Bragança Paulista, BR",
        "timeZone": "America/Sao_Paulo",
        "lon": "-46.54418",
        "lat": "-22.9527"
    },
    "Capelinha, BR":     {
        "cityName": "Capelinha, BR",
        "timeZone": "America/Sao_Paulo",
        "lon": "-42.51583",
        "lat": "-17.69139"
    },
    "Pompéia, BR":     {
        "cityName": "Pompéia, BR",
        "timeZone": "America/Sao_Paulo",
        "lon": "-50.17167",
        "lat": "-22.10861"
    },
    "Casimiro de Abreu, BR":     {
        "cityName": "Casimiro de Abreu, BR",
        "timeZone": "America/Sao_Paulo",
        "lon": "-42.20417",
        "lat": "-22.48056"
    },
    "Porto Velho, BR":     {
        "cityName": "Porto Velho, BR",
        "timeZone": "America/Porto_Velho",
        "lon": "-63.90389",
        "lat": "-8.76194"
    },
    "Concórdia, BR":     {
        "cityName": "Concórdia, BR",
        "timeZone": "America/Sao_Paulo",
        "lon": "-52.02778",
        "lat": "-27.23417"
    },
    "Porangatu, BR":     {
        "cityName": "Porangatu, BR",
        "timeZone": "America/Sao_Paulo",
        "lon": "-49.14861",
        "lat": "-13.44083"
    },
    "Capâo Bonito, BR":     {
        "cityName": "Capâo Bonito, BR",
        "timeZone": "America/Sao_Paulo",
        "lon": "-48.34944",
        "lat": "-24.00583"
    },
    "Araguari, BR":     {
        "cityName": "Araguari, BR",
        "timeZone": "America/Sao_Paulo",
        "lon": "-48.18722",
        "lat": "-18.64722"
    },
    "São Cristóvão, BR":     {
        "cityName": "São Cristóvão, BR",
        "timeZone": "America/Maceio",
        "lon": "-37.20639",
        "lat": "-11.01472"
    },
    "Castanhal, BR":     {
        "cityName": "Castanhal, BR",
        "timeZone": "America/Belem",
        "lon": "-47.92639",
        "lat": "-1.29389"
    },
    "Santa Isabel, BR":     {
        "cityName": "Santa Isabel, BR",
        "timeZone": "America/Sao_Paulo",
        "lon": "-46.22139",
        "lat": "-23.31556"
    },
    "Quixadá, BR":     {
        "cityName": "Quixadá, BR",
        "timeZone": "America/Fortaleza",
        "lon": "-39.01528",
        "lat": "-4.97139"
    },
    "Araçatuba, BR":     {
        "cityName": "Araçatuba, BR",
        "timeZone": "America/Sao_Paulo",
        "lon": "-50.43278",
        "lat": "-21.20889"
    },
    "Birigui, BR":     {
        "cityName": "Birigui, BR",
        "timeZone": "America/Sao_Paulo",
        "lon": "-50.34",
        "lat": "-21.28861"
    },
    "Piracicaba, BR":     {
        "cityName": "Piracicaba, BR",
        "timeZone": "America/Sao_Paulo",
        "lon": "-47.64917",
        "lat": "-22.72528"
    },
    "Mogi das Cruzes, BR":     {
        "cityName": "Mogi das Cruzes, BR",
        "timeZone": "America/Sao_Paulo",
        "lon": "-46.18833",
        "lat": "-23.52278"
    },
    "Teófilo Otoni, BR":     {
        "cityName": "Teófilo Otoni, BR",
        "timeZone": "America/Sao_Paulo",
        "lon": "-41.50528",
        "lat": "-17.8575"
    },
    "Breves, BR":     {
        "cityName": "Breves, BR",
        "timeZone": "America/Belem",
        "lon": "-50.48028",
        "lat": "-1.68222"
    },
    "Araruama, BR":     {
        "cityName": "Araruama, BR",
        "timeZone": "America/Sao_Paulo",
        "lon": "-42.34306",
        "lat": "-22.87278"
    },
    "Freguesia do Ribeirao da Ilha, BR":     {
        "cityName": "Freguesia do Ribeirao da Ilha, BR",
        "timeZone": "America/Sao_Paulo",
        "lon": "-48.56266",
        "lat": "-27.71773"
    },
    "São Raimundo Nonato, BR":     {
        "cityName": "São Raimundo Nonato, BR",
        "timeZone": "America/Fortaleza",
        "lon": "-42.69944",
        "lat": "-9.01528"
    },
    "Nazaré, BR":     {
        "cityName": "Nazaré, BR",
        "timeZone": "America/Bahia",
        "lon": "-39.01444",
        "lat": "-13.035"
    },
    "Gaspar, BR":     {
        "cityName": "Gaspar, BR",
        "timeZone": "America/Sao_Paulo",
        "lon": "-48.95889",
        "lat": "-26.93139"
    },
    "Alenquer, BR":     {
        "cityName": "Alenquer, BR",
        "timeZone": "America/Santarem",
        "lon": "-54.73833",
        "lat": "-1.94167"
    },
    "Barcarena, BR":     {
        "cityName": "Barcarena, BR",
        "timeZone": "America/Belem",
        "lon": "-48.62583",
        "lat": "-1.50583"
    },
    "Carmo do Paranaíba, BR":     {
        "cityName": "Carmo do Paranaíba, BR",
        "timeZone": "America/Sao_Paulo",
        "lon": "-46.31611",
        "lat": "-19.00083"
    },
    "Itaocara, BR":     {
        "cityName": "Itaocara, BR",
        "timeZone": "America/Sao_Paulo",
        "lon": "-42.07611",
        "lat": "-21.66917"
    },
    "Altamira, BR":     {
        "cityName": "Altamira, BR",
        "timeZone": "America/Santarem",
        "lon": "-52.20639",
        "lat": "-3.20333"
    },
    "Ariquemes, BR":     {
        "cityName": "Ariquemes, BR",
        "timeZone": "America/Porto_Velho",
        "lon": "-63.04083",
        "lat": "-9.91333"
    },
    "Jaraguá, BR":     {
        "cityName": "Jaraguá, BR",
        "timeZone": "America/Sao_Paulo",
        "lon": "-49.33444",
        "lat": "-15.75694"
    },
    "Itajubá, BR":     {
        "cityName": "Itajubá, BR",
        "timeZone": "America/Sao_Paulo",
        "lon": "-45.45278",
        "lat": "-22.42556"
    },
    "Tucano, BR":     {
        "cityName": "Tucano, BR",
        "timeZone": "America/Bahia",
        "lon": "-38.79084",
        "lat": "-10.95817"
    },
    "Apiaí, BR":     {
        "cityName": "Apiaí, BR",
        "timeZone": "America/Sao_Paulo",
        "lon": "-48.8425",
        "lat": "-24.50944"
    },
    "Capitão Poço, BR":     {
        "cityName": "Capitão Poço, BR",
        "timeZone": "America/Belem",
        "lon": "-47.05944",
        "lat": "-1.74639"
    },
    "Torres, BR":     {
        "cityName": "Torres, BR",
        "timeZone": "America/Sao_Paulo",
        "lon": "-49.72694",
        "lat": "-29.33528"
    },
    "Santo André, BR":     {
        "cityName": "Santo André, BR",
        "timeZone": "America/Sao_Paulo",
        "lon": "-46.53833",
        "lat": "-23.66389"
    },
    "Nova Era, BR":     {
        "cityName": "Nova Era, BR",
        "timeZone": "America/Sao_Paulo",
        "lon": "-43.0375",
        "lat": "-19.75"
    },
    "Santos Dumont, BR":     {
        "cityName": "Santos Dumont, BR",
        "timeZone": "America/Sao_Paulo",
        "lon": "-43.5525",
        "lat": "-21.45667"
    },
    "Barreiros, BR":     {
        "cityName": "Barreiros, BR",
        "timeZone": "America/Recife",
        "lon": "-35.18639",
        "lat": "-8.81833"
    },
    "Iporá, BR":     {
        "cityName": "Iporá, BR",
        "timeZone": "America/Sao_Paulo",
        "lon": "-51.11778",
        "lat": "-16.44194"
    },
    "Inhumas, BR":     {
        "cityName": "Inhumas, BR",
        "timeZone": "America/Sao_Paulo",
        "lon": "-49.49611",
        "lat": "-16.35778"
    },
    "Moju, BR":     {
        "cityName": "Moju, BR",
        "timeZone": "America/Belem",
        "lon": "-48.76889",
        "lat": "-1.88389"
    },
    "Santiago, BR":     {
        "cityName": "Santiago, BR",
        "timeZone": "America/Sao_Paulo",
        "lon": "-54.86722",
        "lat": "-29.19167"
    },
    "Gravataí, BR":     {
        "cityName": "Gravataí, BR",
        "timeZone": "America/Sao_Paulo",
        "lon": "-50.99278",
        "lat": "-29.94218"
    },
    "São João de Meriti, BR":     {
        "cityName": "São João de Meriti, BR",
        "timeZone": "America/Sao_Paulo",
        "lon": "-43.37222",
        "lat": "-22.80389"
    },
    "Itapaci, BR":     {
        "cityName": "Itapaci, BR",
        "timeZone": "America/Sao_Paulo",
        "lon": "-49.54944",
        "lat": "-14.95083"
    },
    "Santa Rita do Passa Quatro, BR":     {
        "cityName": "Santa Rita do Passa Quatro, BR",
        "timeZone": "America/Sao_Paulo",
        "lon": "-47.47806",
        "lat": "-21.71028"
    },
    "Paulínia, BR":     {
        "cityName": "Paulínia, BR",
        "timeZone": "America/Sao_Paulo",
        "lon": "-47.15417",
        "lat": "-22.76111"
    },
    "São Carlos, BR":     {
        "cityName": "São Carlos, BR",
        "timeZone": "America/Sao_Paulo",
        "lon": "-47.89083",
        "lat": "-22.0175"
    },
    "Santo Estêvão, BR":     {
        "cityName": "Santo Estêvão, BR",
        "timeZone": "America/Bahia",
        "lon": "-39.25139",
        "lat": "-12.43028"
    },
    "Pato Branco, BR":     {
        "cityName": "Pato Branco, BR",
        "timeZone": "America/Sao_Paulo",
        "lon": "-52.67056",
        "lat": "-26.22861"
    },
    "Vigia, BR":     {
        "cityName": "Vigia, BR",
        "timeZone": "America/Belem",
        "lon": "-48.14167",
        "lat": "-0.85833"
    },
    "Umuarama, BR":     {
        "cityName": "Umuarama, BR",
        "timeZone": "America/Sao_Paulo",
        "lon": "-53.325",
        "lat": "-23.76639"
    },
    "Barbalha, BR":     {
        "cityName": "Barbalha, BR",
        "timeZone": "America/Fortaleza",
        "lon": "-39.30417",
        "lat": "-7.31111"
    },
    "Itajuípe, BR":     {
        "cityName": "Itajuípe, BR",
        "timeZone": "America/Bahia",
        "lon": "-39.375",
        "lat": "-14.67806"
    },
    "Caçador, BR":     {
        "cityName": "Caçador, BR",
        "timeZone": "America/Sao_Paulo",
        "lon": "-51.015",
        "lat": "-26.77528"
    },
    "São Gonçalo do Sapucaí, BR":     {
        "cityName": "São Gonçalo do Sapucaí, BR",
        "timeZone": "America/Sao_Paulo",
        "lon": "-45.59528",
        "lat": "-21.89222"
    },
    "Rubiataba, BR":     {
        "cityName": "Rubiataba, BR",
        "timeZone": "America/Sao_Paulo",
        "lon": "-49.80333",
        "lat": "-15.16444"
    },
    "Padre Bernardo, BR":     {
        "cityName": "Padre Bernardo, BR",
        "timeZone": "America/Sao_Paulo",
        "lon": "-48.28281",
        "lat": "-15.16595"
    },
    "Barbacena, BR":     {
        "cityName": "Barbacena, BR",
        "timeZone": "America/Sao_Paulo",
        "lon": "-43.77361",
        "lat": "-21.22583"
    },
    "Itaquaquecetuba, BR":     {
        "cityName": "Itaquaquecetuba, BR",
        "timeZone": "America/Sao_Paulo",
        "lon": "-46.34833",
        "lat": "-23.48611"
    },
    "Franca, BR":     {
        "cityName": "Franca, BR",
        "timeZone": "America/Sao_Paulo",
        "lon": "-47.40083",
        "lat": "-20.53861"
    },
    "Brejo da Madre de Deus, BR":     {
        "cityName": "Brejo da Madre de Deus, BR",
        "timeZone": "America/Recife",
        "lon": "-36.37111",
        "lat": "-8.14583"
    },
    "Coromandel, BR":     {
        "cityName": "Coromandel, BR",
        "timeZone": "America/Sao_Paulo",
        "lon": "-47.20028",
        "lat": "-18.47333"
    },
    "Itaberaí, BR":     {
        "cityName": "Itaberaí, BR",
        "timeZone": "America/Sao_Paulo",
        "lon": "-49.81028",
        "lat": "-16.02028"
    },
    "Limoeiro, BR":     {
        "cityName": "Limoeiro, BR",
        "timeZone": "America/Recife",
        "lon": "-35.45028",
        "lat": "-7.87472"
    },
    "Ipueiras, BR":     {
        "cityName": "Ipueiras, BR",
        "timeZone": "America/Fortaleza",
        "lon": "-40.45",
        "lat": "-7.03333"
    },
    "Itajaí, BR":     {
        "cityName": "Itajaí, BR",
        "timeZone": "America/Sao_Paulo",
        "lon": "-48.66194",
        "lat": "-26.90778"
    },
    "Piúma, BR":     {
        "cityName": "Piúma, BR",
        "timeZone": "America/Sao_Paulo",
        "lon": "-40.72194",
        "lat": "-20.83778"
    },
    "Jaraguá do Sul, BR":     {
        "cityName": "Jaraguá do Sul, BR",
        "timeZone": "America/Sao_Paulo",
        "lon": "-49.06667",
        "lat": "-26.48611"
    },
    "Carauari, BR":     {
        "cityName": "Carauari, BR",
        "timeZone": "America/Manaus",
        "lon": "-66.89583",
        "lat": "-4.88278"
    },
    "Além Paraíba, BR":     {
        "cityName": "Além Paraíba, BR",
        "timeZone": "America/Sao_Paulo",
        "lon": "-42.70444",
        "lat": "-21.88778"
    },
    "São Gonçalo do Amarante, BR":     {
        "cityName": "São Gonçalo do Amarante, BR",
        "timeZone": "America/Fortaleza",
        "lon": "-38.96833",
        "lat": "-3.60722"
    },
    "Patos de Minas, BR":     {
        "cityName": "Patos de Minas, BR",
        "timeZone": "America/Sao_Paulo",
        "lon": "-46.51806",
        "lat": "-18.57889"
    },
    "Cícero Dantas, BR":     {
        "cityName": "Cícero Dantas, BR",
        "timeZone": "America/Bahia",
        "lon": "-38.38333",
        "lat": "-10.6"
    },
    "Cajamar, BR":     {
        "cityName": "Cajamar, BR",
        "timeZone": "America/Sao_Paulo",
        "lon": "-46.87694",
        "lat": "-23.35611"
    },
    "Pedro Leopoldo, BR":     {
        "cityName": "Pedro Leopoldo, BR",
        "timeZone": "America/Sao_Paulo",
        "lon": "-44.04306",
        "lat": "-19.61806"
    },
    "Içara, BR":     {
        "cityName": "Içara, BR",
        "timeZone": "America/Sao_Paulo",
        "lon": "-49.3",
        "lat": "-28.71333"
    },
    "Paraipaba, BR":     {
        "cityName": "Paraipaba, BR",
        "timeZone": "America/Fortaleza",
        "lon": "-39.14833",
        "lat": "-3.43944"
    },
    "Mariana, BR":     {
        "cityName": "Mariana, BR",
        "timeZone": "America/Sao_Paulo",
        "lon": "-43.41611",
        "lat": "-20.37778"
    },
    "Capanema, BR":     {
        "cityName": "Capanema, BR",
        "timeZone": "America/Belem",
        "lon": "-47.18083",
        "lat": "-1.19583"
    },
    "Aracruz, BR":     {
        "cityName": "Aracruz, BR",
        "timeZone": "America/Sao_Paulo",
        "lon": "-40.27333",
        "lat": "-19.82028"
    },
    "Lavras da Mangabeira, BR":     {
        "cityName": "Lavras da Mangabeira, BR",
        "timeZone": "America/Fortaleza",
        "lon": "-38.96444",
        "lat": "-6.75333"
    },
    "Maceió, BR":     {
        "cityName": "Maceió, BR",
        "timeZone": "America/Maceio",
        "lon": "-35.73528",
        "lat": "-9.66583"
    },
    "São Sepé, BR":     {
        "cityName": "São Sepé, BR",
        "timeZone": "America/Sao_Paulo",
        "lon": "-53.56528",
        "lat": "-30.16056"
    },
    "Várzea Alegre, BR":     {
        "cityName": "Várzea Alegre, BR",
        "timeZone": "America/Fortaleza",
        "lon": "-40.38333",
        "lat": "-5.35"
    },
    "Conselheiro Lafaiete, BR":     {
        "cityName": "Conselheiro Lafaiete, BR",
        "timeZone": "America/Sao_Paulo",
        "lon": "-43.78611",
        "lat": "-20.66028"
    },
    "Lagoa Santa, BR":     {
        "cityName": "Lagoa Santa, BR",
        "timeZone": "America/Sao_Paulo",
        "lon": "-43.9009",
        "lat": "-19.63006"
    },
    "Cornélio Procópio, BR":     {
        "cityName": "Cornélio Procópio, BR",
        "timeZone": "America/Sao_Paulo",
        "lon": "-50.64667",
        "lat": "-23.18111"
    },
    "Ilhabela, BR":     {
        "cityName": "Ilhabela, BR",
        "timeZone": "America/Sao_Paulo",
        "lon": "-45.35806",
        "lat": "-23.77806"
    },
    "Campo Grande, BR":     {
        "cityName": "Campo Grande, BR",
        "timeZone": "America/Campo_Grande",
        "lon": "-54.64639",
        "lat": "-20.44278"
    },
    "Boituva, BR":     {
        "cityName": "Boituva, BR",
        "timeZone": "America/Sao_Paulo",
        "lon": "-47.67222",
        "lat": "-23.28333"
    },
    "Ourinhos, BR":     {
        "cityName": "Ourinhos, BR",
        "timeZone": "America/Sao_Paulo",
        "lon": "-49.87056",
        "lat": "-22.97889"
    },
    "Ceres, BR":     {
        "cityName": "Ceres, BR",
        "timeZone": "America/Sao_Paulo",
        "lon": "-49.59833",
        "lat": "-15.30833"
    },
    "Anicuns, BR":     {
        "cityName": "Anicuns, BR",
        "timeZone": "America/Sao_Paulo",
        "lon": "-49.96167",
        "lat": "-16.46111"
    },
    "Porto União, BR":     {
        "cityName": "Porto União, BR",
        "timeZone": "America/Sao_Paulo",
        "lon": "-51.07833",
        "lat": "-26.23806"
    },
    "São Mateus, BR":     {
        "cityName": "São Mateus, BR",
        "timeZone": "America/Sao_Paulo",
        "lon": "-39.85891",
        "lat": "-18.72011"
    },
    "São Francisco, BR":     {
        "cityName": "São Francisco, BR",
        "timeZone": "America/Sao_Paulo",
        "lon": "-44.86444",
        "lat": "-15.94861"
    },
    "Matozinhos, BR":     {
        "cityName": "Matozinhos, BR",
        "timeZone": "America/Sao_Paulo",
        "lon": "-44.08139",
        "lat": "-19.55778"
    },
    "Prata, BR":     {
        "cityName": "Prata, BR",
        "timeZone": "America/Sao_Paulo",
        "lon": "-48.92417",
        "lat": "-19.30722"
    },
    "Caxias, BR":     {
        "cityName": "Caxias, BR",
        "timeZone": "America/Fortaleza",
        "lon": "-43.35611",
        "lat": "-4.85889"
    },
    "Maragogi, BR":     {
        "cityName": "Maragogi, BR",
        "timeZone": "America/Maceio",
        "lon": "-35.2225",
        "lat": "-9.01222"
    },
    "Manhumirim, BR":     {
        "cityName": "Manhumirim, BR",
        "timeZone": "America/Sao_Paulo",
        "lon": "-41.95806",
        "lat": "-20.35778"
    },
    "Itapipoca, BR":     {
        "cityName": "Itapipoca, BR",
        "timeZone": "America/Fortaleza",
        "lon": "-39.57861",
        "lat": "-3.49444"
    },
    "Igarassu, BR":     {
        "cityName": "Igarassu, BR",
        "timeZone": "America/Recife",
        "lon": "-34.90639",
        "lat": "-7.83417"
    },
    "Cajueiro, BR":     {
        "cityName": "Cajueiro, BR",
        "timeZone": "America/Maceio",
        "lon": "-36.45",
        "lat": "-9.71667"
    },
    "Vila Velha, BR":     {
        "cityName": "Vila Velha, BR",
        "timeZone": "America/Sao_Paulo",
        "lon": "-40.2925",
        "lat": "-20.32972"
    },
    "Três Passos, BR":     {
        "cityName": "Três Passos, BR",
        "timeZone": "America/Sao_Paulo",
        "lon": "-53.93194",
        "lat": "-27.45556"
    },
    "Santa Rosa, BR":     {
        "cityName": "Santa Rosa, BR",
        "timeZone": "America/Sao_Paulo",
        "lon": "-54.48139",
        "lat": "-27.87083"
    },
    "Santa Rita do Sapucaí, BR":     {
        "cityName": "Santa Rita do Sapucaí, BR",
        "timeZone": "America/Sao_Paulo",
        "lon": "-45.70333",
        "lat": "-22.25222"
    },
    "Cacoal, BR":     {
        "cityName": "Cacoal, BR",
        "timeZone": "America/Porto_Velho",
        "lon": "-61.44722",
        "lat": "-11.43861"
    },
    "Campos dos Goytacazes, BR":     {
        "cityName": "Campos dos Goytacazes, BR",
        "timeZone": "America/Sao_Paulo",
        "lon": "-41.33044",
        "lat": "-21.75227"
    },
    "Nazaré da Mata, BR":     {
        "cityName": "Nazaré da Mata, BR",
        "timeZone": "America/Recife",
        "lon": "-35.22778",
        "lat": "-7.74167"
    },
    "Cascavel, BR":     {
        "cityName": "Cascavel, BR",
        "timeZone": "America/Sao_Paulo",
        "lon": "-53.45528",
        "lat": "-24.95583"
    },
    "São João da Boa Vista, BR":     {
        "cityName": "São João da Boa Vista, BR",
        "timeZone": "America/Sao_Paulo",
        "lon": "-46.79806",
        "lat": "-21.96917"
    },
    "Mombaça, BR":     {
        "cityName": "Mombaça, BR",
        "timeZone": "America/Fortaleza",
        "lon": "-39.6275",
        "lat": "-5.74306"
    },
    "Aguaí, BR":     {
        "cityName": "Aguaí, BR",
        "timeZone": "America/Sao_Paulo",
        "lon": "-46.97861",
        "lat": "-22.05944"
    },
    "Jaboatão dos Guararapes, BR":     {
        "cityName": "Jaboatão dos Guararapes, BR",
        "timeZone": "America/Recife",
        "lon": "-35.01472",
        "lat": "-8.11278"
    },
    "Franco da Rocha, BR":     {
        "cityName": "Franco da Rocha, BR",
        "timeZone": "America/Sao_Paulo",
        "lon": "-46.72694",
        "lat": "-23.32167"
    },
    "Cruz Alta, BR":     {
        "cityName": "Cruz Alta, BR",
        "timeZone": "America/Sao_Paulo",
        "lon": "-53.60639",
        "lat": "-28.63861"
    },
    "Uruaçu, BR":     {
        "cityName": "Uruaçu, BR",
        "timeZone": "America/Sao_Paulo",
        "lon": "-49.14083",
        "lat": "-14.52472"
    },
    "Conceição das Alagoas, BR":     {
        "cityName": "Conceição das Alagoas, BR",
        "timeZone": "America/Sao_Paulo",
        "lon": "-48.38833",
        "lat": "-19.91472"
    },
    "Cianorte, BR":     {
        "cityName": "Cianorte, BR",
        "timeZone": "America/Sao_Paulo",
        "lon": "-52.605",
        "lat": "-23.66333"
    },
    "Nova Granada, BR":     {
        "cityName": "Nova Granada, BR",
        "timeZone": "America/Sao_Paulo",
        "lon": "-49.31417",
        "lat": "-20.53389"
    },
    "Conceição da Feira, BR":     {
        "cityName": "Conceição da Feira, BR",
        "timeZone": "America/Bahia",
        "lon": "-38.99861",
        "lat": "-12.50583"
    },
    "Marialva, BR":     {
        "cityName": "Marialva, BR",
        "timeZone": "America/Sao_Paulo",
        "lon": "-51.79167",
        "lat": "-23.485"
    },
    "São Marcos, BR":     {
        "cityName": "São Marcos, BR",
        "timeZone": "America/Sao_Paulo",
        "lon": "-51.06806",
        "lat": "-28.97111"
    },
    "Paraguaçu Paulista, BR":     {
        "cityName": "Paraguaçu Paulista, BR",
        "timeZone": "America/Sao_Paulo",
        "lon": "-50.57583",
        "lat": "-22.41278"
    },
    "Arcos, BR":     {
        "cityName": "Arcos, BR",
        "timeZone": "America/Sao_Paulo",
        "lon": "-45.53944",
        "lat": "-20.28194"
    },
    "Feira de Santana, BR":     {
        "cityName": "Feira de Santana, BR",
        "timeZone": "America/Bahia",
        "lon": "-38.96667",
        "lat": "-12.26667"
    },
    "Santarém, BR":     {
        "cityName": "Santarém, BR",
        "timeZone": "America/Santarem",
        "lon": "-54.70833",
        "lat": "-2.44306"
    },
    "Quatro Barras, BR":     {
        "cityName": "Quatro Barras, BR",
        "timeZone": "America/Sao_Paulo",
        "lon": "-49.07694",
        "lat": "-25.36556"
    },
    "Timóteo, BR":     {
        "cityName": "Timóteo, BR",
        "timeZone": "America/Sao_Paulo",
        "lon": "-42.64953",
        "lat": "-19.58106"
    },
    "Muritiba, BR":     {
        "cityName": "Muritiba, BR",
        "timeZone": "America/Bahia",
        "lon": "-39.25",
        "lat": "-12.91667"
    },
    "Acaraú, BR":     {
        "cityName": "Acaraú, BR",
        "timeZone": "America/Fortaleza",
        "lon": "-40.12",
        "lat": "-2.88556"
    },
    "Boa Vista, BR":     {
        "cityName": "Boa Vista, BR",
        "timeZone": "America/Boa_Vista",
        "lon": "-60.67333",
        "lat": "2.81972"
    },
    "Jequitinhonha, BR":     {
        "cityName": "Jequitinhonha, BR",
        "timeZone": "America/Sao_Paulo",
        "lon": "-41.00333",
        "lat": "-16.43389"
    },
    "Pedro II, BR":     {
        "cityName": "Pedro II, BR",
        "timeZone": "America/Fortaleza",
        "lon": "-41.45861",
        "lat": "-4.42472"
    },
    "Suzano, BR":     {
        "cityName": "Suzano, BR",
        "timeZone": "America/Sao_Paulo",
        "lon": "-46.31083",
        "lat": "-23.5425"
    },
    "Coruripe, BR":     {
        "cityName": "Coruripe, BR",
        "timeZone": "America/Maceio",
        "lon": "-36.17556",
        "lat": "-10.12556"
    },
    "Vargem Grande, BR":     {
        "cityName": "Vargem Grande, BR",
        "timeZone": "America/Fortaleza",
        "lon": "-43.91583",
        "lat": "-3.54306"
    },
    "Santa Fé do Sul, BR":     {
        "cityName": "Santa Fé do Sul, BR",
        "timeZone": "America/Sao_Paulo",
        "lon": "-50.92583",
        "lat": "-20.21111"
    },
    "Colombo, BR":     {
        "cityName": "Colombo, BR",
        "timeZone": "America/Sao_Paulo",
        "lon": "-49.22417",
        "lat": "-25.29167"
    },
    "Coxim, BR":     {
        "cityName": "Coxim, BR",
        "timeZone": "America/Campo_Grande",
        "lon": "-54.76",
        "lat": "-18.50667"
    },
    "Boa Esperança, BR":     {
        "cityName": "Boa Esperança, BR",
        "timeZone": "America/Sao_Paulo",
        "lon": "-45.56583",
        "lat": "-21.09"
    },
    "Araci, BR":     {
        "cityName": "Araci, BR",
        "timeZone": "America/Bahia",
        "lon": "-38.96667",
        "lat": "-11.33333"
    },
    "Tefé, BR":     {
        "cityName": "Tefé, BR",
        "timeZone": "America/Manaus",
        "lon": "-64.72054",
        "lat": "-3.36841"
    },
    "Serrinha, BR":     {
        "cityName": "Serrinha, BR",
        "timeZone": "America/Bahia",
        "lon": "-39.0075",
        "lat": "-11.66417"
    },
    "Ribeirão Pires, BR":     {
        "cityName": "Ribeirão Pires, BR",
        "timeZone": "America/Sao_Paulo",
        "lon": "-46.41333",
        "lat": "-23.71056"
    },
    "Nova Lima, BR":     {
        "cityName": "Nova Lima, BR",
        "timeZone": "America/Sao_Paulo",
        "lon": "-43.84667",
        "lat": "-19.98556"
    },
    "Monte Santo de Minas, BR":     {
        "cityName": "Monte Santo de Minas, BR",
        "timeZone": "America/Sao_Paulo",
        "lon": "-46.98028",
        "lat": "-21.18972"
    },
    "Guaíba, BR":     {
        "cityName": "Guaíba, BR",
        "timeZone": "America/Sao_Paulo",
        "lon": "-51.325",
        "lat": "-30.11389"
    },
    "São José do Egito, BR":     {
        "cityName": "São José do Egito, BR",
        "timeZone": "America/Recife",
        "lon": "-37.27444",
        "lat": "-7.47889"
    },
    "Monte Alegre, BR":     {
        "cityName": "Monte Alegre, BR",
        "timeZone": "America/Santarem",
        "lon": "-54.08102",
        "lat": "-2.00082"
    },
    "Codó, BR":     {
        "cityName": "Codó, BR",
        "timeZone": "America/Fortaleza",
        "lon": "-43.88556",
        "lat": "-4.45528"
    },
    "Pirapora, BR":     {
        "cityName": "Pirapora, BR",
        "timeZone": "America/Sao_Paulo",
        "lon": "-44.94194",
        "lat": "-17.345"
    },
    "Assis, BR":     {
        "cityName": "Assis, BR",
        "timeZone": "America/Sao_Paulo",
        "lon": "-50.41222",
        "lat": "-22.66167"
    },
    "Salinas, BR":     {
        "cityName": "Salinas, BR",
        "timeZone": "America/Sao_Paulo",
        "lon": "-42.29028",
        "lat": "-16.17028"
    },
    "Goianésia, BR":     {
        "cityName": "Goianésia, BR",
        "timeZone": "America/Sao_Paulo",
        "lon": "-49.1175",
        "lat": "-15.3175"
    },
    "Joaçaba, BR":     {
        "cityName": "Joaçaba, BR",
        "timeZone": "America/Sao_Paulo",
        "lon": "-51.50472",
        "lat": "-27.17806"
    },
    "Três Coroas, BR":     {
        "cityName": "Três Coroas, BR",
        "timeZone": "America/Sao_Paulo",
        "lon": "-50.77778",
        "lat": "-29.51694"
    },
    "Afogados da Ingazeira, BR":     {
        "cityName": "Afogados da Ingazeira, BR",
        "timeZone": "America/Recife",
        "lon": "-37.63917",
        "lat": "-7.75083"
    },
    "Caicó, BR":     {
        "cityName": "Caicó, BR",
        "timeZone": "America/Fortaleza",
        "lon": "-37.09778",
        "lat": "-6.45833"
    },
    "Santa Helena de Goiás, BR":     {
        "cityName": "Santa Helena de Goiás, BR",
        "timeZone": "America/Sao_Paulo",
        "lon": "-50.59694",
        "lat": "-17.81361"
    },
    "Pacatuba, BR":     {
        "cityName": "Pacatuba, BR",
        "timeZone": "America/Fortaleza",
        "lon": "-38.62028",
        "lat": "-3.98417"
    },
    "Itapeva, BR":     {
        "cityName": "Itapeva, BR",
        "timeZone": "America/Sao_Paulo",
        "lon": "-48.87556",
        "lat": "-23.98222"
    },
    "Almirante Tamandaré, BR":     {
        "cityName": "Almirante Tamandaré, BR",
        "timeZone": "America/Sao_Paulo",
        "lon": "-49.31",
        "lat": "-25.32472"
    },
    "Itapagé, BR":     {
        "cityName": "Itapagé, BR",
        "timeZone": "America/Fortaleza",
        "lon": "-39.58611",
        "lat": "-3.68667"
    },
    "Oriximiná, BR":     {
        "cityName": "Oriximiná, BR",
        "timeZone": "America/Santarem",
        "lon": "-55.86611",
        "lat": "-1.76556"
    },
    "Alegrete, BR":     {
        "cityName": "Alegrete, BR",
        "timeZone": "America/Sao_Paulo",
        "lon": "-55.79194",
        "lat": "-29.78306"
    },
    "Salinópolis, BR":     {
        "cityName": "Salinópolis, BR",
        "timeZone": "America/Belem",
        "lon": "-47.35611",
        "lat": "-0.61361"
    },
    "Piracaia, BR":     {
        "cityName": "Piracaia, BR",
        "timeZone": "America/Sao_Paulo",
        "lon": "-46.35806",
        "lat": "-23.05389"
    },
    "São Sebastião, BR":     {
        "cityName": "São Sebastião, BR",
        "timeZone": "America/Sao_Paulo",
        "lon": "-45.40972",
        "lat": "-23.76"
    },
    "Maracaju, BR":     {
        "cityName": "Maracaju, BR",
        "timeZone": "America/Campo_Grande",
        "lon": "-55.16833",
        "lat": "-21.61444"
    },
    "Florianópolis, BR":     {
        "cityName": "Florianópolis, BR",
        "timeZone": "America/Sao_Paulo",
        "lon": "-48.54917",
        "lat": "-27.59667"
    },
    "Parnamirim, BR":     {
        "cityName": "Parnamirim, BR",
        "timeZone": "America/Fortaleza",
        "lon": "-35.26278",
        "lat": "-5.91556"
    },
    "Bayeux, BR":     {
        "cityName": "Bayeux, BR",
        "timeZone": "America/Fortaleza",
        "lon": "-34.93222",
        "lat": "-7.125"
    },
    "Muzambinho, BR":     {
        "cityName": "Muzambinho, BR",
        "timeZone": "America/Sao_Paulo",
        "lon": "-46.52556",
        "lat": "-21.37583"
    },
    "Irati, BR":     {
        "cityName": "Irati, BR",
        "timeZone": "America/Sao_Paulo",
        "lon": "-50.65111",
        "lat": "-25.46722"
    },
    "Queimados, BR":     {
        "cityName": "Queimados, BR",
        "timeZone": "America/Sao_Paulo",
        "lon": "-43.55528",
        "lat": "-22.71611"
    },
    "São Paulo, BR":     {
        "cityName": "São Paulo, BR",
        "timeZone": "America/Sao_Paulo",
        "lon": "-46.63611",
        "lat": "-23.5475"
    },
    "Ibiá, BR":     {
        "cityName": "Ibiá, BR",
        "timeZone": "America/Sao_Paulo",
        "lon": "-46.53889",
        "lat": "-19.47833"
    },
    "Conceição do Jacuípe, BR":     {
        "cityName": "Conceição do Jacuípe, BR",
        "timeZone": "America/Bahia",
        "lon": "-38.76667",
        "lat": "-12.31667"
    },
    "São Mateus do Sul, BR":     {
        "cityName": "São Mateus do Sul, BR",
        "timeZone": "America/Sao_Paulo",
        "lon": "-50.38278",
        "lat": "-25.87417"
    },
    "Entre Rios, BR":     {
        "cityName": "Entre Rios, BR",
        "timeZone": "America/Bahia",
        "lon": "-38.08444",
        "lat": "-11.94194"
    },
    "Santo Amaro, BR":     {
        "cityName": "Santo Amaro, BR",
        "timeZone": "America/Bahia",
        "lon": "-38.71194",
        "lat": "-12.54667"
    },
    "Itaitinga, BR":     {
        "cityName": "Itaitinga, BR",
        "timeZone": "America/Fortaleza",
        "lon": "-38.52806",
        "lat": "-3.96944"
    },
    "Votuporanga, BR":     {
        "cityName": "Votuporanga, BR",
        "timeZone": "America/Sao_Paulo",
        "lon": "-49.97278",
        "lat": "-20.42278"
    },
    "Ji Paraná, BR":     {
        "cityName": "Ji Paraná, BR",
        "timeZone": "America/Porto_Velho",
        "lon": "-61.95167",
        "lat": "-10.88528"
    },
    "Nova Olímpia, BR":     {
        "cityName": "Nova Olímpia, BR",
        "timeZone": "America/Cuiaba",
        "lon": "-57.28806",
        "lat": "-14.79722"
    },
    "Balneário Camboriú, BR":     {
        "cityName": "Balneário Camboriú, BR",
        "timeZone": "America/Sao_Paulo",
        "lon": "-48.63472",
        "lat": "-26.99056"
    },
    "Laranjal Paulista, BR":     {
        "cityName": "Laranjal Paulista, BR",
        "timeZone": "America/Sao_Paulo",
        "lon": "-47.83667",
        "lat": "-23.04972"
    },
    "Cabedelo, BR":     {
        "cityName": "Cabedelo, BR",
        "timeZone": "America/Fortaleza",
        "lon": "-34.83389",
        "lat": "-6.98111"
    },
    "Brumadinho, BR":     {
        "cityName": "Brumadinho, BR",
        "timeZone": "America/Sao_Paulo",
        "lon": "-44.19972",
        "lat": "-20.14333"
    },
    "Visconde do Rio Branco, BR":     {
        "cityName": "Visconde do Rio Branco, BR",
        "timeZone": "America/Sao_Paulo",
        "lon": "-42.84056",
        "lat": "-21.01028"
    },
    "Nossa Senhora do Socorro, BR":     {
        "cityName": "Nossa Senhora do Socorro, BR",
        "timeZone": "America/Maceio",
        "lon": "-37.12611",
        "lat": "-10.855"
    },
    "Eunápolis, BR":     {
        "cityName": "Eunápolis, BR",
        "timeZone": "America/Bahia",
        "lon": "-39.58028",
        "lat": "-16.3775"
    },
    "Itororó, BR":     {
        "cityName": "Itororó, BR",
        "timeZone": "America/Bahia",
        "lon": "-40.07028",
        "lat": "-15.11694"
    },
    "Aimorés, BR":     {
        "cityName": "Aimorés, BR",
        "timeZone": "America/Sao_Paulo",
        "lon": "-41.06389",
        "lat": "-19.49583"
    },
    "Peruíbe, BR":     {
        "cityName": "Peruíbe, BR",
        "timeZone": "America/Sao_Paulo",
        "lon": "-46.99833",
        "lat": "-24.32"
    },
    "Medeiros Neto, BR":     {
        "cityName": "Medeiros Neto, BR",
        "timeZone": "America/Bahia",
        "lon": "-40.22056",
        "lat": "-17.37389"
    },
    "Toledo, BR":     {
        "cityName": "Toledo, BR",
        "timeZone": "America/Sao_Paulo",
        "lon": "-53.74306",
        "lat": "-24.71361"
    },
    "Catanduva, BR":     {
        "cityName": "Catanduva, BR",
        "timeZone": "America/Sao_Paulo",
        "lon": "-48.97278",
        "lat": "-21.13778"
    },
    "Passos, BR":     {
        "cityName": "Passos, BR",
        "timeZone": "America/Sao_Paulo",
        "lon": "-46.60972",
        "lat": "-20.71889"
    },
    "Carangola, BR":     {
        "cityName": "Carangola, BR",
        "timeZone": "America/Sao_Paulo",
        "lon": "-42.02944",
        "lat": "-20.73306"
    },
    "Portão, BR":     {
        "cityName": "Portão, BR",
        "timeZone": "America/Sao_Paulo",
        "lon": "-51.24194",
        "lat": "-29.70167"
    },
    "Ibiúna, BR":     {
        "cityName": "Ibiúna, BR",
        "timeZone": "America/Sao_Paulo",
        "lon": "-47.2225",
        "lat": "-23.65639"
    },
    "São João del Rei, BR":     {
        "cityName": "São João del Rei, BR",
        "timeZone": "America/Sao_Paulo",
        "lon": "-44.26167",
        "lat": "-21.13556"
    },
    "São Bernardo do Campo, BR":     {
        "cityName": "São Bernardo do Campo, BR",
        "timeZone": "America/Sao_Paulo",
        "lon": "-46.565",
        "lat": "-23.69389"
    },
    "Cupira, BR":     {
        "cityName": "Cupira, BR",
        "timeZone": "America/Recife",
        "lon": "-35.95",
        "lat": "-8.61667"
    },
    "Quirinópolis, BR":     {
        "cityName": "Quirinópolis, BR",
        "timeZone": "America/Sao_Paulo",
        "lon": "-50.45167",
        "lat": "-18.44833"
    },
    "Ouro Branco, BR":     {
        "cityName": "Ouro Branco, BR",
        "timeZone": "America/Sao_Paulo",
        "lon": "-43.69486",
        "lat": "-20.52334"
    },
    "Chã Grande, BR":     {
        "cityName": "Chã Grande, BR",
        "timeZone": "America/Recife",
        "lon": "-35.46167",
        "lat": "-8.23833"
    },
    "Bento Gonçalves, BR":     {
        "cityName": "Bento Gonçalves, BR",
        "timeZone": "America/Sao_Paulo",
        "lon": "-51.51917",
        "lat": "-29.17139"
    },
    "Registro, BR":     {
        "cityName": "Registro, BR",
        "timeZone": "America/Sao_Paulo",
        "lon": "-47.84361",
        "lat": "-24.4875"
    },
    "Pindobaçu, BR":     {
        "cityName": "Pindobaçu, BR",
        "timeZone": "America/Bahia",
        "lon": "-40.36083",
        "lat": "-10.74167"
    },
    "Casa Branca, BR":     {
        "cityName": "Casa Branca, BR",
        "timeZone": "America/Sao_Paulo",
        "lon": "-47.08639",
        "lat": "-21.77389"
    },
    "Tuntum, BR":     {
        "cityName": "Tuntum, BR",
        "timeZone": "America/Fortaleza",
        "lon": "-44.64889",
        "lat": "-5.25806"
    },
    "Barra dos Coqueiros, BR":     {
        "cityName": "Barra dos Coqueiros, BR",
        "timeZone": "America/Maceio",
        "lon": "-37.03861",
        "lat": "-10.90889"
    },
    "Coronel Fabriciano, BR":     {
        "cityName": "Coronel Fabriciano, BR",
        "timeZone": "America/Sao_Paulo",
        "lon": "-42.62889",
        "lat": "-19.51861"
    },
    "Schroeder, BR":     {
        "cityName": "Schroeder, BR",
        "timeZone": "America/Sao_Paulo",
        "lon": "-49.07306",
        "lat": "-26.4125"
    },
    "Divinópolis, BR":     {
        "cityName": "Divinópolis, BR",
        "timeZone": "America/Sao_Paulo",
        "lon": "-44.89065",
        "lat": "-20.14355"
    },
    "Brodósqui, BR":     {
        "cityName": "Brodósqui, BR",
        "timeZone": "America/Sao_Paulo",
        "lon": "-47.65861",
        "lat": "-20.99139"
    },
    "Teutônia, BR":     {
        "cityName": "Teutônia, BR",
        "timeZone": "America/Sao_Paulo",
        "lon": "-51.80639",
        "lat": "-29.44806"
    },
    "Pindamonhangaba, BR":     {
        "cityName": "Pindamonhangaba, BR",
        "timeZone": "America/Sao_Paulo",
        "lon": "-45.46167",
        "lat": "-22.92389"
    },
    "Juazeiro do Norte, BR":     {
        "cityName": "Juazeiro do Norte, BR",
        "timeZone": "America/Fortaleza",
        "lon": "-39.31528",
        "lat": "-7.21306"
    },
    "Crato, BR":     {
        "cityName": "Crato, BR",
        "timeZone": "America/Fortaleza",
        "lon": "-39.40944",
        "lat": "-7.23417"
    },
    "Jandira, BR":     {
        "cityName": "Jandira, BR",
        "timeZone": "America/Sao_Paulo",
        "lon": "-46.9025",
        "lat": "-23.5275"
    },
    "Morada Nova, BR":     {
        "cityName": "Morada Nova, BR",
        "timeZone": "America/Fortaleza",
        "lon": "-38.3725",
        "lat": "-5.10667"
    },
    "Rio Formoso, BR":     {
        "cityName": "Rio Formoso, BR",
        "timeZone": "America/Recife",
        "lon": "-35.16277",
        "lat": "-8.66877"
    },
    "Maragogipe, BR":     {
        "cityName": "Maragogipe, BR",
        "timeZone": "America/Bahia",
        "lon": "-38.91944",
        "lat": "-12.77778"
    },
    "Santa Rita, BR":     {
        "cityName": "Santa Rita, BR",
        "timeZone": "America/Fortaleza",
        "lon": "-34.97806",
        "lat": "-7.11389"
    },
    "Conceição da Barra, BR":     {
        "cityName": "Conceição da Barra, BR",
        "timeZone": "America/Sao_Paulo",
        "lon": "-39.73222",
        "lat": "-18.59333"
    },
    "Brumado, BR":     {
        "cityName": "Brumado, BR",
        "timeZone": "America/Bahia",
        "lon": "-41.66528",
        "lat": "-14.20361"
    },
    "Monte Carmelo, BR":     {
        "cityName": "Monte Carmelo, BR",
        "timeZone": "America/Sao_Paulo",
        "lon": "-47.49861",
        "lat": "-18.72472"
    },
    "Sidrolândia, BR":     {
        "cityName": "Sidrolândia, BR",
        "timeZone": "America/Campo_Grande",
        "lon": "-54.96139",
        "lat": "-20.93194"
    },
    "Mauá, BR":     {
        "cityName": "Mauá, BR",
        "timeZone": "America/Sao_Paulo",
        "lon": "-46.46139",
        "lat": "-23.66778"
    },
    "Cataguases, BR":     {
        "cityName": "Cataguases, BR",
        "timeZone": "America/Sao_Paulo",
        "lon": "-42.69667",
        "lat": "-21.38917"
    },
    "Estância Velha, BR":     {
        "cityName": "Estância Velha, BR",
        "timeZone": "America/Sao_Paulo",
        "lon": "-51.17389",
        "lat": "-29.64833"
    },
    "Lapa, BR":     {
        "cityName": "Lapa, BR",
        "timeZone": "America/Sao_Paulo",
        "lon": "-49.71583",
        "lat": "-25.76972"
    },
    "Campo Formoso, BR":     {
        "cityName": "Campo Formoso, BR",
        "timeZone": "America/Bahia",
        "lon": "-40.32139",
        "lat": "-10.5075"
    },
    "Machado, BR":     {
        "cityName": "Machado, BR",
        "timeZone": "America/Sao_Paulo",
        "lon": "-45.91972",
        "lat": "-21.67472"
    },
    "Ipu, BR":     {
        "cityName": "Ipu, BR",
        "timeZone": "America/Fortaleza",
        "lon": "-40.71083",
        "lat": "-4.32222"
    },
    "Taquaritinga, BR":     {
        "cityName": "Taquaritinga, BR",
        "timeZone": "America/Sao_Paulo",
        "lon": "-48.50472",
        "lat": "-21.40611"
    },
    "Caçapava, BR":     {
        "cityName": "Caçapava, BR",
        "timeZone": "America/Sao_Paulo",
        "lon": "-45.70694",
        "lat": "-23.10083"
    },
    "Caruaru, BR":     {
        "cityName": "Caruaru, BR",
        "timeZone": "America/Recife",
        "lon": "-35.97611",
        "lat": "-8.28333"
    },
    "Ribeirão das Neves, BR":     {
        "cityName": "Ribeirão das Neves, BR",
        "timeZone": "America/Sao_Paulo",
        "lon": "-44.08667",
        "lat": "-19.76694"
    },
    "Piraquara, BR":     {
        "cityName": "Piraquara, BR",
        "timeZone": "America/Sao_Paulo",
        "lon": "-49.06795",
        "lat": "-25.44227"
    },
    "Itaparica, BR":     {
        "cityName": "Itaparica, BR",
        "timeZone": "America/Bahia",
        "lon": "-38.67861",
        "lat": "-12.88833"
    },
    "São José dos Campos, BR":     {
        "cityName": "São José dos Campos, BR",
        "timeZone": "America/Sao_Paulo",
        "lon": "-45.88694",
        "lat": "-23.17944"
    },
    "Piuí, BR":     {
        "cityName": "Piuí, BR",
        "timeZone": "America/Sao_Paulo",
        "lon": "-45.95806",
        "lat": "-20.46528"
    },
    "Petrolina, BR":     {
        "cityName": "Petrolina, BR",
        "timeZone": "America/Recife",
        "lon": "-40.50083",
        "lat": "-9.39861"
    },
    "Tietê, BR":     {
        "cityName": "Tietê, BR",
        "timeZone": "America/Sao_Paulo",
        "lon": "-47.71472",
        "lat": "-23.10194"
    },
    "Nepomuceno, BR":     {
        "cityName": "Nepomuceno, BR",
        "timeZone": "America/Sao_Paulo",
        "lon": "-45.23488",
        "lat": "-21.23342"
    },
    "Itamaraju, BR":     {
        "cityName": "Itamaraju, BR",
        "timeZone": "America/Bahia",
        "lon": "-39.53111",
        "lat": "-17.03917"
    },
    "Farroupilha, BR":     {
        "cityName": "Farroupilha, BR",
        "timeZone": "America/Sao_Paulo",
        "lon": "-51.34778",
        "lat": "-29.225"
    },
    "Blumenau, BR":     {
        "cityName": "Blumenau, BR",
        "timeZone": "America/Sao_Paulo",
        "lon": "-49.06611",
        "lat": "-26.91944"
    },
    "Santo Antônio da Platina, BR":     {
        "cityName": "Santo Antônio da Platina, BR",
        "timeZone": "America/Sao_Paulo",
        "lon": "-50.07722",
        "lat": "-23.295"
    },
    "Balsas, BR":     {
        "cityName": "Balsas, BR",
        "timeZone": "America/Fortaleza",
        "lon": "-46.03556",
        "lat": "-7.5325"
    },
    "Euclides da Cunha, BR":     {
        "cityName": "Euclides da Cunha, BR",
        "timeZone": "America/Bahia",
        "lon": "-39.01583",
        "lat": "-10.5075"
    },
    "Taquara, BR":     {
        "cityName": "Taquara, BR",
        "timeZone": "America/Sao_Paulo",
        "lon": "-50.78056",
        "lat": "-29.65056"
    },
    "José Bonifácio, BR":     {
        "cityName": "José Bonifácio, BR",
        "timeZone": "America/Sao_Paulo",
        "lon": "-49.68833",
        "lat": "-21.05278"
    },
    "Caucaia, BR":     {
        "cityName": "Caucaia, BR",
        "timeZone": "America/Fortaleza",
        "lon": "-38.65306",
        "lat": "-3.73611"
    },
    "Carapicuíba, BR":     {
        "cityName": "Carapicuíba, BR",
        "timeZone": "America/Sao_Paulo",
        "lon": "-46.835",
        "lat": "-23.52272"
    },
    "Mongaguá, BR":     {
        "cityName": "Mongaguá, BR",
        "timeZone": "America/Sao_Paulo",
        "lon": "-46.62083",
        "lat": "-24.09306"
    },
    "Apucarana, BR":     {
        "cityName": "Apucarana, BR",
        "timeZone": "America/Sao_Paulo",
        "lon": "-51.46083",
        "lat": "-23.55083"
    },
    "Barreiras, BR":     {
        "cityName": "Barreiras, BR",
        "timeZone": "America/Bahia",
        "lon": "-44.99",
        "lat": "-12.15278"
    },
    "Fonte Boa, BR":     {
        "cityName": "Fonte Boa, BR",
        "timeZone": "America/Manaus",
        "lon": "-66.09167",
        "lat": "-2.51389"
    },
    "Canindé, BR":     {
        "cityName": "Canindé, BR",
        "timeZone": "America/Fortaleza",
        "lon": "-39.31167",
        "lat": "-4.35889"
    },
    "Morro Agudo, BR":     {
        "cityName": "Morro Agudo, BR",
        "timeZone": "America/Sao_Paulo",
        "lon": "-48.05778",
        "lat": "-20.73139"
    },
    "Campos do Jordão, BR":     {
        "cityName": "Campos do Jordão, BR",
        "timeZone": "America/Sao_Paulo",
        "lon": "-45.59139",
        "lat": "-22.73944"
    },
    "Mascote, BR":     {
        "cityName": "Mascote, BR",
        "timeZone": "America/Bahia",
        "lon": "-39.3025",
        "lat": "-15.56306"
    },
    "Barra do Corda, BR":     {
        "cityName": "Barra do Corda, BR",
        "timeZone": "America/Fortaleza",
        "lon": "-45.23693",
        "lat": "-5.50308"
    },
    "Brotas, BR":     {
        "cityName": "Brotas, BR",
        "timeZone": "America/Sao_Paulo",
        "lon": "-48.12667",
        "lat": "-22.28417"
    },
    "Vacaria, BR":     {
        "cityName": "Vacaria, BR",
        "timeZone": "America/Sao_Paulo",
        "lon": "-50.93389",
        "lat": "-28.51222"
    },
    "Uberlândia, BR":     {
        "cityName": "Uberlândia, BR",
        "timeZone": "America/Sao_Paulo",
        "lon": "-48.27722",
        "lat": "-18.91861"
    },
    "Várzea Paulista, BR":     {
        "cityName": "Várzea Paulista, BR",
        "timeZone": "America/Sao_Paulo",
        "lon": "-46.82833",
        "lat": "-23.21139"
    },
    "Carandaí, BR":     {
        "cityName": "Carandaí, BR",
        "timeZone": "America/Sao_Paulo",
        "lon": "-43.80639",
        "lat": "-20.95361"
    },
    "Mangaratiba, BR":     {
        "cityName": "Mangaratiba, BR",
        "timeZone": "America/Sao_Paulo",
        "lon": "-44.04056",
        "lat": "-22.95972"
    },
    "Rio de Janeiro, BR":     {
        "cityName": "Rio de Janeiro, BR",
        "timeZone": "America/Sao_Paulo",
        "lon": "-43.2075",
        "lat": "-22.90278"
    },
    "Olímpia, BR":     {
        "cityName": "Olímpia, BR",
        "timeZone": "America/Sao_Paulo",
        "lon": "-48.91472",
        "lat": "-20.73722"
    },
    "Camocim, BR":     {
        "cityName": "Camocim, BR",
        "timeZone": "America/Fortaleza",
        "lon": "-40.84111",
        "lat": "-2.90222"
    },
    "Caçapava do Sul, BR":     {
        "cityName": "Caçapava do Sul, BR",
        "timeZone": "America/Sao_Paulo",
        "lon": "-53.48496",
        "lat": "-30.51436"
    },
    "Belo Horizonte, BR":     {
        "cityName": "Belo Horizonte, BR",
        "timeZone": "America/Sao_Paulo",
        "lon": "-43.93778",
        "lat": "-19.92083"
    },
    "Pinhão, BR":     {
        "cityName": "Pinhão, BR",
        "timeZone": "America/Sao_Paulo",
        "lon": "-51.65972",
        "lat": "-25.69556"
    },
    "Canela, BR":     {
        "cityName": "Canela, BR",
        "timeZone": "America/Sao_Paulo",
        "lon": "-50.81357",
        "lat": "-29.35622"
    },
    "Tomé Açu, BR":     {
        "cityName": "Tomé Açu, BR",
        "timeZone": "America/Belem",
        "lon": "-48.15222",
        "lat": "-2.41889"
    },
    "Ibiporã, BR":     {
        "cityName": "Ibiporã, BR",
        "timeZone": "America/Sao_Paulo",
        "lon": "-51.04806",
        "lat": "-23.26917"
    },
    "Barra de São Francisco, BR":     {
        "cityName": "Barra de São Francisco, BR",
        "timeZone": "America/Sao_Paulo",
        "lon": "-40.89083",
        "lat": "-18.755"
    },
    "Ipojuca, BR":     {
        "cityName": "Ipojuca, BR",
        "timeZone": "America/Recife",
        "lon": "-35.06389",
        "lat": "-8.39889"
    },
    "Marechal Deodoro, BR":     {
        "cityName": "Marechal Deodoro, BR",
        "timeZone": "America/Maceio",
        "lon": "-35.895",
        "lat": "-9.71028"
    },
    "Ouricuri, BR":     {
        "cityName": "Ouricuri, BR",
        "timeZone": "America/Recife",
        "lon": "-40.08167",
        "lat": "-7.8825"
    },
    "Biguaçu, BR":     {
        "cityName": "Biguaçu, BR",
        "timeZone": "America/Sao_Paulo",
        "lon": "-48.65556",
        "lat": "-27.49417"
    },
    "São Miguel dos Campos, BR":     {
        "cityName": "São Miguel dos Campos, BR",
        "timeZone": "America/Maceio",
        "lon": "-36.09361",
        "lat": "-9.78111"
    },
    "Santa Bárbara d'Oeste, BR":     {
        "cityName": "Santa Bárbara d'Oeste, BR",
        "timeZone": "America/Sao_Paulo",
        "lon": "-47.41361",
        "lat": "-22.75361"
    },
    "Formosa, BR":     {
        "cityName": "Formosa, BR",
        "timeZone": "America/Sao_Paulo",
        "lon": "-47.33444",
        "lat": "-15.53722"
    },
    "Arari, BR":     {
        "cityName": "Arari, BR",
        "timeZone": "America/Fortaleza",
        "lon": "-44.78",
        "lat": "-3.45361"
    },
    "Santana do Paraíso, BR":     {
        "cityName": "Santana do Paraíso, BR",
        "timeZone": "America/Sao_Paulo",
        "lon": "-42.56861",
        "lat": "-19.36361"
    },
    "Cordeiro, BR":     {
        "cityName": "Cordeiro, BR",
        "timeZone": "America/Sao_Paulo",
        "lon": "-42.36083",
        "lat": "-22.02861"
    },
    "Bandeirantes, BR":     {
        "cityName": "Bandeirantes, BR",
        "timeZone": "America/Sao_Paulo",
        "lon": "-50.3675",
        "lat": "-23.11"
    },
    "Miguelópolis, BR":     {
        "cityName": "Miguelópolis, BR",
        "timeZone": "America/Sao_Paulo",
        "lon": "-48.03194",
        "lat": "-20.17944"
    },
    "Santos, BR":     {
        "cityName": "Santos, BR",
        "timeZone": "America/Sao_Paulo",
        "lon": "-46.33361",
        "lat": "-23.96083"
    },
    "Mineiros, BR":     {
        "cityName": "Mineiros, BR",
        "timeZone": "America/Sao_Paulo",
        "lon": "-52.55111",
        "lat": "-17.56944"
    },
    "Contagem, BR":     {
        "cityName": "Contagem, BR",
        "timeZone": "America/Sao_Paulo",
        "lon": "-44.05361",
        "lat": "-19.93167"
    },
    "Uberaba, BR":     {
        "cityName": "Uberaba, BR",
        "timeZone": "America/Sao_Paulo",
        "lon": "-47.93194",
        "lat": "-19.74833"
    },
    "Jaru, BR":     {
        "cityName": "Jaru, BR",
        "timeZone": "America/Porto_Velho",
        "lon": "-62.46639",
        "lat": "-10.43889"
    },
    "Araranguá, BR":     {
        "cityName": "Araranguá, BR",
        "timeZone": "America/Sao_Paulo",
        "lon": "-49.49538",
        "lat": "-28.93575"
    },
    "Macatuba, BR":     {
        "cityName": "Macatuba, BR",
        "timeZone": "America/Sao_Paulo",
        "lon": "-48.71139",
        "lat": "-22.50222"
    },
    "Macaé, BR":     {
        "cityName": "Macaé, BR",
        "timeZone": "America/Sao_Paulo",
        "lon": "-41.78324",
        "lat": "-22.38484"
    },
    "Santa Cruz, BR":     {
        "cityName": "Santa Cruz, BR",
        "timeZone": "America/Fortaleza",
        "lon": "-36.02278",
        "lat": "-6.22944"
    },
    "Sacramento, BR":     {
        "cityName": "Sacramento, BR",
        "timeZone": "America/Sao_Paulo",
        "lon": "-47.44",
        "lat": "-19.86528"
    },
    "Rio Largo, BR":     {
        "cityName": "Rio Largo, BR",
        "timeZone": "America/Maceio",
        "lon": "-35.85333",
        "lat": "-9.47833"
    },
    "Ladário, BR":     {
        "cityName": "Ladário, BR",
        "timeZone": "America/Campo_Grande",
        "lon": "-57.60167",
        "lat": "-19.00472"
    },
    "Ijuí, BR":     {
        "cityName": "Ijuí, BR",
        "timeZone": "America/Sao_Paulo",
        "lon": "-53.91472",
        "lat": "-28.38778"
    },
    "Caxias do Sul, BR":     {
        "cityName": "Caxias do Sul, BR",
        "timeZone": "America/Sao_Paulo",
        "lon": "-51.17944",
        "lat": "-29.16806"
    },
    "Valinhos, BR":     {
        "cityName": "Valinhos, BR",
        "timeZone": "America/Sao_Paulo",
        "lon": "-46.99583",
        "lat": "-22.97056"
    },
    "Aracati, BR":     {
        "cityName": "Aracati, BR",
        "timeZone": "America/Fortaleza",
        "lon": "-37.76972",
        "lat": "-4.56167"
    },
    "Cruzeiro, BR":     {
        "cityName": "Cruzeiro, BR",
        "timeZone": "America/Sao_Paulo",
        "lon": "-44.97108",
        "lat": "-22.57316"
    },
    "Rolante, BR":     {
        "cityName": "Rolante, BR",
        "timeZone": "America/Sao_Paulo",
        "lon": "-50.57583",
        "lat": "-29.65056"
    },
    "Rio Verde de Mato Grosso, BR":     {
        "cityName": "Rio Verde de Mato Grosso, BR",
        "timeZone": "America/Campo_Grande",
        "lon": "-54.84417",
        "lat": "-18.91806"
    },
    "Santa Cecília, BR":     {
        "cityName": "Santa Cecília, BR",
        "timeZone": "America/Sao_Paulo",
        "lon": "-50.42694",
        "lat": "-26.96083"
    },
    "Conceição do Araguaia, BR":     {
        "cityName": "Conceição do Araguaia, BR",
        "timeZone": "America/Belem",
        "lon": "-49.26982",
        "lat": "-8.26441"
    },
    "Rio Branco do Sul, BR":     {
        "cityName": "Rio Branco do Sul, BR",
        "timeZone": "America/Sao_Paulo",
        "lon": "-49.31417",
        "lat": "-25.19"
    },
    "Arapiraca, BR":     {
        "cityName": "Arapiraca, BR",
        "timeZone": "America/Maceio",
        "lon": "-36.66111",
        "lat": "-9.7525"
    },
    "Santo Antônio de Jesus, BR":     {
        "cityName": "Santo Antônio de Jesus, BR",
        "timeZone": "America/Bahia",
        "lon": "-39.26139",
        "lat": "-12.96889"
    },
    "Dois Córregos, BR":     {
        "cityName": "Dois Córregos, BR",
        "timeZone": "America/Sao_Paulo",
        "lon": "-48.38028",
        "lat": "-22.36611"
    },
    "Resende, BR":     {
        "cityName": "Resende, BR",
        "timeZone": "America/Sao_Paulo",
        "lon": "-44.44667",
        "lat": "-22.46889"
    },
    "Abreu e Lima, BR":     {
        "cityName": "Abreu e Lima, BR",
        "timeZone": "America/Recife",
        "lon": "-34.90278",
        "lat": "-7.91167"
    },
    "Patos, BR":     {
        "cityName": "Patos, BR",
        "timeZone": "America/Fortaleza",
        "lon": "-37.28",
        "lat": "-7.02444"
    },
    "Oliveira, BR":     {
        "cityName": "Oliveira, BR",
        "timeZone": "America/Sao_Paulo",
        "lon": "-44.82722",
        "lat": "-20.69639"
    },
    "Santa Cruz Cabrália, BR":     {
        "cityName": "Santa Cruz Cabrália, BR",
        "timeZone": "America/Bahia",
        "lon": "-39.02472",
        "lat": "-16.27806"
    },
    "Aparecida de Goiânia, BR":     {
        "cityName": "Aparecida de Goiânia, BR",
        "timeZone": "America/Sao_Paulo",
        "lon": "-49.24389",
        "lat": "-16.82333"
    },
    "Brasília, BR":     {
        "cityName": "Brasília, BR",
        "timeZone": "America/Sao_Paulo",
        "lon": "-47.92972",
        "lat": "-15.77972"
    },
    "Perdões, BR":     {
        "cityName": "Perdões, BR",
        "timeZone": "America/Sao_Paulo",
        "lon": "-45.09139",
        "lat": "-21.09083"
    },
    "Paty do Alferes, BR":     {
        "cityName": "Paty do Alferes, BR",
        "timeZone": "America/Sao_Paulo",
        "lon": "-43.41861",
        "lat": "-22.42861"
    },
    "Mucuri, BR":     {
        "cityName": "Mucuri, BR",
        "timeZone": "America/Bahia",
        "lon": "-39.55083",
        "lat": "-18.08639"
    },
    "Santa Cruz do Capibaribe, BR":     {
        "cityName": "Santa Cruz do Capibaribe, BR",
        "timeZone": "America/Recife",
        "lon": "-36.20472",
        "lat": "-7.9575"
    },
    "Santa Helena, BR":     {
        "cityName": "Santa Helena, BR",
        "timeZone": "America/Fortaleza",
        "lon": "-45.3",
        "lat": "-2.23111"
    },
    "Pimenta Bueno, BR":     {
        "cityName": "Pimenta Bueno, BR",
        "timeZone": "America/Porto_Velho",
        "lon": "-61.19361",
        "lat": "-11.6725"
    },
    "São Luiz Gonzaga, BR":     {
        "cityName": "São Luiz Gonzaga, BR",
        "timeZone": "America/Sao_Paulo",
        "lon": "-54.96083",
        "lat": "-28.40833"
    },
    "Nova Prata, BR":     {
        "cityName": "Nova Prata, BR",
        "timeZone": "America/Sao_Paulo",
        "lon": "-51.61",
        "lat": "-28.78389"
    },
    "Valença do Piauí, BR":     {
        "cityName": "Valença do Piauí, BR",
        "timeZone": "America/Fortaleza",
        "lon": "-41.74556",
        "lat": "-6.4075"
    },
    "Serra Negra, BR":     {
        "cityName": "Serra Negra, BR",
        "timeZone": "America/Sao_Paulo",
        "lon": "-46.70056",
        "lat": "-22.61222"
    },
    "Rio Brilhante, BR":     {
        "cityName": "Rio Brilhante, BR",
        "timeZone": "America/Campo_Grande",
        "lon": "-54.54639",
        "lat": "-21.80194"
    },
    "Abaeté, BR":     {
        "cityName": "Abaeté, BR",
        "timeZone": "America/Sao_Paulo",
        "lon": "-45.44583",
        "lat": "-19.16"
    },
    "Carazinho, BR":     {
        "cityName": "Carazinho, BR",
        "timeZone": "America/Sao_Paulo",
        "lon": "-52.78639",
        "lat": "-28.28389"
    },
    "Itupeva, BR":     {
        "cityName": "Itupeva, BR",
        "timeZone": "America/Sao_Paulo",
        "lon": "-47.05778",
        "lat": "-23.15306"
    },
    "Araçuaí, BR":     {
        "cityName": "Araçuaí, BR",
        "timeZone": "America/Sao_Paulo",
        "lon": "-42.07028",
        "lat": "-16.84972"
    },
    "Pombal, BR":     {
        "cityName": "Pombal, BR",
        "timeZone": "America/Fortaleza",
        "lon": "-37.80167",
        "lat": "-6.77028"
    },
    "Ipubi, BR":     {
        "cityName": "Ipubi, BR",
        "timeZone": "America/Recife",
        "lon": "-40.14889",
        "lat": "-7.65194"
    },
    "Rio Negrinho, BR":     {
        "cityName": "Rio Negrinho, BR",
        "timeZone": "America/Sao_Paulo",
        "lon": "-49.51833",
        "lat": "-26.25444"
    },
    "Camaquã, BR":     {
        "cityName": "Camaquã, BR",
        "timeZone": "America/Sao_Paulo",
        "lon": "-51.81222",
        "lat": "-30.85111"
    },
    "Penápolis, BR":     {
        "cityName": "Penápolis, BR",
        "timeZone": "America/Sao_Paulo",
        "lon": "-50.0775",
        "lat": "-21.41972"
    },
    "São Francisco do Conde, BR":     {
        "cityName": "São Francisco do Conde, BR",
        "timeZone": "America/Bahia",
        "lon": "-38.68",
        "lat": "-12.6275"
    },
    "Cachoeirinha, BR":     {
        "cityName": "Cachoeirinha, BR",
        "timeZone": "America/Sao_Paulo",
        "lon": "-51.09389",
        "lat": "-29.95111"
    },
    "Palmeira das Missões, BR":     {
        "cityName": "Palmeira das Missões, BR",
        "timeZone": "America/Sao_Paulo",
        "lon": "-53.31361",
        "lat": "-27.89944"
    },
    "Caratinga, BR":     {
        "cityName": "Caratinga, BR",
        "timeZone": "America/Sao_Paulo",
        "lon": "-42.13917",
        "lat": "-19.78972"
    },
    "Promissão, BR":     {
        "cityName": "Promissão, BR",
        "timeZone": "America/Sao_Paulo",
        "lon": "-49.85806",
        "lat": "-21.53667"
    },
    "Conceição do Coité, BR":     {
        "cityName": "Conceição do Coité, BR",
        "timeZone": "America/Bahia",
        "lon": "-39.28278",
        "lat": "-11.56389"
    },
    "Barroso, BR":     {
        "cityName": "Barroso, BR",
        "timeZone": "America/Sao_Paulo",
        "lon": "-43.97583",
        "lat": "-21.18694"
    },
    "Monte Alto, BR":     {
        "cityName": "Monte Alto, BR",
        "timeZone": "America/Sao_Paulo",
        "lon": "-48.49639",
        "lat": "-21.26111"
    },
    "Lucas, BR":     {
        "cityName": "Lucas, BR",
        "timeZone": "America/Cuiaba",
        "lon": "-55.93333",
        "lat": "-16.33333"
    },
    "Dourados, BR":     {
        "cityName": "Dourados, BR",
        "timeZone": "America/Campo_Grande",
        "lon": "-54.80556",
        "lat": "-22.22111"
    },
    "Cuiabá, BR":     {
        "cityName": "Cuiabá, BR",
        "timeZone": "America/Cuiaba",
        "lon": "-56.09667",
        "lat": "-15.59611"
    },
    "Barra do Piraí, BR":     {
        "cityName": "Barra do Piraí, BR",
        "timeZone": "America/Sao_Paulo",
        "lon": "-43.82556",
        "lat": "-22.47"
    },
    "Horizonte, BR":     {
        "cityName": "Horizonte, BR",
        "timeZone": "America/Fortaleza",
        "lon": "-38.48333",
        "lat": "-4.1"
    },
    "Palotina, BR":     {
        "cityName": "Palotina, BR",
        "timeZone": "America/Sao_Paulo",
        "lon": "-53.84",
        "lat": "-24.28389"
    },
    "Colorado, BR":     {
        "cityName": "Colorado, BR",
        "timeZone": "America/Sao_Paulo",
        "lon": "-51.97306",
        "lat": "-22.8375"
    },
    "Américo Brasiliense, BR":     {
        "cityName": "Américo Brasiliense, BR",
        "timeZone": "America/Sao_Paulo",
        "lon": "-48.10167",
        "lat": "-21.72444"
    },
    "Águas Belas, BR":     {
        "cityName": "Águas Belas, BR",
        "timeZone": "America/Recife",
        "lon": "-37.12306",
        "lat": "-9.11139"
    },
    "Paraguaçu, BR":     {
        "cityName": "Paraguaçu, BR",
        "timeZone": "America/Sao_Paulo",
        "lon": "-45.7375",
        "lat": "-21.54722"
    },
    "São Sebastião do Paraíso, BR":     {
        "cityName": "São Sebastião do Paraíso, BR",
        "timeZone": "America/Sao_Paulo",
        "lon": "-46.99139",
        "lat": "-20.91694"
    },
    "Diadema, BR":     {
        "cityName": "Diadema, BR",
        "timeZone": "America/Sao_Paulo",
        "lon": "-46.62278",
        "lat": "-23.68611"
    },
    "Jeremoabo, BR":     {
        "cityName": "Jeremoabo, BR",
        "timeZone": "America/Bahia",
        "lon": "-38.48083",
        "lat": "-10.075"
    },
    "Ubatuba, BR":     {
        "cityName": "Ubatuba, BR",
        "timeZone": "America/Sao_Paulo",
        "lon": "-45.07111",
        "lat": "-23.43389"
    },
    "Itabirito, BR":     {
        "cityName": "Itabirito, BR",
        "timeZone": "America/Sao_Paulo",
        "lon": "-43.80139",
        "lat": "-20.25333"
    },
    "Itapecuru Mirim, BR":     {
        "cityName": "Itapecuru Mirim, BR",
        "timeZone": "America/Fortaleza",
        "lon": "-44.35861",
        "lat": "-3.3925"
    },
    "Votorantim, BR":     {
        "cityName": "Votorantim, BR",
        "timeZone": "America/Sao_Paulo",
        "lon": "-47.43778",
        "lat": "-23.54667"
    },
    "Ilhéus, BR":     {
        "cityName": "Ilhéus, BR",
        "timeZone": "America/Bahia",
        "lon": "-39.03949",
        "lat": "-14.79364"
    },
    "Santa Cruz das Palmeiras, BR":     {
        "cityName": "Santa Cruz das Palmeiras, BR",
        "timeZone": "America/Sao_Paulo",
        "lon": "-47.24861",
        "lat": "-21.82694"
    },
    "Osório, BR":     {
        "cityName": "Osório, BR",
        "timeZone": "America/Sao_Paulo",
        "lon": "-50.26972",
        "lat": "-29.88667"
    },
    "Pindaré Mirim, BR":     {
        "cityName": "Pindaré Mirim, BR",
        "timeZone": "America/Fortaleza",
        "lon": "-45.34333",
        "lat": "-3.60833"
    },
    "Lauro de Freitas, BR":     {
        "cityName": "Lauro de Freitas, BR",
        "timeZone": "America/Bahia",
        "lon": "-38.32722",
        "lat": "-12.89444"
    },
    "Jundiaí, BR":     {
        "cityName": "Jundiaí, BR",
        "timeZone": "America/Sao_Paulo",
        "lon": "-46.88417",
        "lat": "-23.18639"
    },
    "Almeirim, BR":     {
        "cityName": "Almeirim, BR",
        "timeZone": "America/Santarem",
        "lon": "-52.58167",
        "lat": "-1.52333"
    },
    "Tarauacá, BR":     {
        "cityName": "Tarauacá, BR",
        "timeZone": "America/Rio_Branco",
        "lon": "-70.76556",
        "lat": "-8.16139"
    },
    "Campo Alegre, BR":     {
        "cityName": "Campo Alegre, BR",
        "timeZone": "America/Maceio",
        "lon": "-36.35083",
        "lat": "-9.78194"
    },
    "Tanabi, BR":     {
        "cityName": "Tanabi, BR",
        "timeZone": "America/Sao_Paulo",
        "lon": "-49.64917",
        "lat": "-20.62639"
    },
    "Bebedouro, BR":     {
        "cityName": "Bebedouro, BR",
        "timeZone": "America/Sao_Paulo",
        "lon": "-48.47917",
        "lat": "-20.94944"
    },
    "Planaltina, BR":     {
        "cityName": "Planaltina, BR",
        "timeZone": "America/Sao_Paulo",
        "lon": "-47.64874",
        "lat": "-15.61791"
    },
    "Guarapuava, BR":     {
        "cityName": "Guarapuava, BR",
        "timeZone": "America/Sao_Paulo",
        "lon": "-51.46541",
        "lat": "-25.39048"
    },
    "São João dos Inhamuns, BR":     {
        "cityName": "São João dos Inhamuns, BR",
        "timeZone": "America/Fortaleza",
        "lon": "-40.28333",
        "lat": "-6"
    },
    "Valparaíso, BR":     {
        "cityName": "Valparaíso, BR",
        "timeZone": "America/Sao_Paulo",
        "lon": "-50.86833",
        "lat": "-21.22778"
    },
    "Presidente Venceslau, BR":     {
        "cityName": "Presidente Venceslau, BR",
        "timeZone": "America/Sao_Paulo",
        "lon": "-51.84389",
        "lat": "-21.87611"
    },
    "Foz do Iguaçu, BR":     {
        "cityName": "Foz do Iguaçu, BR",
        "timeZone": "America/Sao_Paulo",
        "lon": "-54.58806",
        "lat": "-25.54778"
    },
    "Cachoeiras de Macacu, BR":     {
        "cityName": "Cachoeiras de Macacu, BR",
        "timeZone": "America/Sao_Paulo",
        "lon": "-42.65306",
        "lat": "-22.4625"
    },
    "Santa Inês, BR":     {
        "cityName": "Santa Inês, BR",
        "timeZone": "America/Fortaleza",
        "lon": "-45.38",
        "lat": "-3.66667"
    },
    "Maracás, BR":     {
        "cityName": "Maracás, BR",
        "timeZone": "America/Bahia",
        "lon": "-40.43083",
        "lat": "-13.44111"
    },
    "Rio Bonito, BR":     {
        "cityName": "Rio Bonito, BR",
        "timeZone": "America/Sao_Paulo",
        "lon": "-42.60972",
        "lat": "-22.70861"
    },
    "Governador Valadares, BR":     {
        "cityName": "Governador Valadares, BR",
        "timeZone": "America/Sao_Paulo",
        "lon": "-41.94944",
        "lat": "-18.85111"
    },
    "Marabá, BR":     {
        "cityName": "Marabá, BR",
        "timeZone": "America/Belem",
        "lon": "-49.13232",
        "lat": "-5.38146"
    },
    "Louveira, BR":     {
        "cityName": "Louveira, BR",
        "timeZone": "America/Sao_Paulo",
        "lon": "-46.95056",
        "lat": "-23.08639"
    },
    "Caxambu, BR":     {
        "cityName": "Caxambu, BR",
        "timeZone": "America/Sao_Paulo",
        "lon": "-44.9325",
        "lat": "-21.97722"
    },
    "São Joaquim da Barra, BR":     {
        "cityName": "São Joaquim da Barra, BR",
        "timeZone": "America/Sao_Paulo",
        "lon": "-47.85472",
        "lat": "-20.58139"
    },
    "Vespasiano, BR":     {
        "cityName": "Vespasiano, BR",
        "timeZone": "America/Sao_Paulo",
        "lon": "-43.92333",
        "lat": "-19.69194"
    },
    "Pirapozinho, BR":     {
        "cityName": "Pirapozinho, BR",
        "timeZone": "America/Sao_Paulo",
        "lon": "-51.5",
        "lat": "-22.27528"
    },
    "Gameleira, BR":     {
        "cityName": "Gameleira, BR",
        "timeZone": "America/Recife",
        "lon": "-35.38667",
        "lat": "-8.58444"
    },
    "Sapiranga, BR":     {
        "cityName": "Sapiranga, BR",
        "timeZone": "America/Sao_Paulo",
        "lon": "-51.00694",
        "lat": "-29.63806"
    },
    "Porto Calvo, BR":     {
        "cityName": "Porto Calvo, BR",
        "timeZone": "America/Maceio",
        "lon": "-35.39833",
        "lat": "-9.045"
    },
    "Fortaleza, BR":     {
        "cityName": "Fortaleza, BR",
        "timeZone": "America/Fortaleza",
        "lon": "-38.54306",
        "lat": "-3.71722"
    },
    "Goiânia, BR":     {
        "cityName": "Goiânia, BR",
        "timeZone": "America/Sao_Paulo",
        "lon": "-49.25389",
        "lat": "-16.67861"
    },
    "Itaguaí, BR":     {
        "cityName": "Itaguaí, BR",
        "timeZone": "America/Sao_Paulo",
        "lon": "-43.77528",
        "lat": "-22.85222"
    },
    "Poá, BR":     {
        "cityName": "Poá, BR",
        "timeZone": "America/Sao_Paulo",
        "lon": "-46.34472",
        "lat": "-23.52806"
    },
    "Igarapé, BR":     {
        "cityName": "Igarapé, BR",
        "timeZone": "America/Sao_Paulo",
        "lon": "-44.30167",
        "lat": "-20.07028"
    },
    "Montes Claros, BR":     {
        "cityName": "Montes Claros, BR",
        "timeZone": "America/Sao_Paulo",
        "lon": "-43.86167",
        "lat": "-16.735"
    },
    "Criciúma, BR":     {
        "cityName": "Criciúma, BR",
        "timeZone": "America/Sao_Paulo",
        "lon": "-49.36972",
        "lat": "-28.6775"
    },
    "Santo Antônio do Amparo, BR":     {
        "cityName": "Santo Antônio do Amparo, BR",
        "timeZone": "America/Sao_Paulo",
        "lon": "-44.91889",
        "lat": "-20.94639"
    },
    "Ipatinga, BR":     {
        "cityName": "Ipatinga, BR",
        "timeZone": "America/Sao_Paulo",
        "lon": "-42.53667",
        "lat": "-19.46833"
    },
    "Belo Jardim, BR":     {
        "cityName": "Belo Jardim, BR",
        "timeZone": "America/Recife",
        "lon": "-36.42417",
        "lat": "-8.33556"
    },
    "Penalva, BR":     {
        "cityName": "Penalva, BR",
        "timeZone": "America/Fortaleza",
        "lon": "-45.17361",
        "lat": "-3.29417"
    },
    "Baturité, BR":     {
        "cityName": "Baturité, BR",
        "timeZone": "America/Fortaleza",
        "lon": "-38.88472",
        "lat": "-4.32861"
    },
    "Rancharia, BR":     {
        "cityName": "Rancharia, BR",
        "timeZone": "America/Sao_Paulo",
        "lon": "-50.89306",
        "lat": "-22.22917"
    },
    "Volta Redonda, BR":     {
        "cityName": "Volta Redonda, BR",
        "timeZone": "America/Sao_Paulo",
        "lon": "-44.10417",
        "lat": "-22.52306"
    },
    "Piraí, BR":     {
        "cityName": "Piraí, BR",
        "timeZone": "America/Sao_Paulo",
        "lon": "-43.89806",
        "lat": "-22.62917"
    },
    "João Pessoa, BR":     {
        "cityName": "João Pessoa, BR",
        "timeZone": "America/Fortaleza",
        "lon": "-34.86306",
        "lat": "-7.115"
    },
    "Almenara, BR":     {
        "cityName": "Almenara, BR",
        "timeZone": "America/Sao_Paulo",
        "lon": "-40.69444",
        "lat": "-16.18361"
    },
    "Campina Grande, BR":     {
        "cityName": "Campina Grande, BR",
        "timeZone": "America/Fortaleza",
        "lon": "-35.88111",
        "lat": "-7.23056"
    },
    "Corumbá, BR":     {
        "cityName": "Corumbá, BR",
        "timeZone": "America/Campo_Grande",
        "lon": "-57.65333",
        "lat": "-19.00917"
    },
    "Mateus Leme, BR":     {
        "cityName": "Mateus Leme, BR",
        "timeZone": "America/Sao_Paulo",
        "lon": "-44.42778",
        "lat": "-19.98639"
    },
    "Diamantino, BR":     {
        "cityName": "Diamantino, BR",
        "timeZone": "America/Cuiaba",
        "lon": "-56.44611",
        "lat": "-14.40861"
    },
    "Santa Gertrudes, BR":     {
        "cityName": "Santa Gertrudes, BR",
        "timeZone": "America/Sao_Paulo",
        "lon": "-47.53028",
        "lat": "-22.45667"
    },
    "Paraty, BR":     {
        "cityName": "Paraty, BR",
        "timeZone": "America/Sao_Paulo",
        "lon": "-44.71306",
        "lat": "-23.21778"
    },
    "Guapimirim, BR":     {
        "cityName": "Guapimirim, BR",
        "timeZone": "America/Sao_Paulo",
        "lon": "-42.98194",
        "lat": "-22.53722"
    },
    "Campo Largo, BR":     {
        "cityName": "Campo Largo, BR",
        "timeZone": "America/Sao_Paulo",
        "lon": "-49.53014",
        "lat": "-25.45955"
    },
    "Carpina, BR":     {
        "cityName": "Carpina, BR",
        "timeZone": "America/Recife",
        "lon": "-35.25472",
        "lat": "-7.85083"
    },
    "Tanguá, BR":     {
        "cityName": "Tanguá, BR",
        "timeZone": "America/Sao_Paulo",
        "lon": "-42.71417",
        "lat": "-22.73028"
    },
    "Simão Dias, BR":     {
        "cityName": "Simão Dias, BR",
        "timeZone": "America/Maceio",
        "lon": "-37.81111",
        "lat": "-10.73833"
    },
    "José de Freitas, BR":     {
        "cityName": "José de Freitas, BR",
        "timeZone": "America/Fortaleza",
        "lon": "-42.57556",
        "lat": "-4.75639"
    },
    "Irecê, BR":     {
        "cityName": "Irecê, BR",
        "timeZone": "America/Bahia",
        "lon": "-41.85583",
        "lat": "-11.30417"
    },
    "Wenceslau Braz, BR":     {
        "cityName": "Wenceslau Braz, BR",
        "timeZone": "America/Sao_Paulo",
        "lon": "-49.80278",
        "lat": "-23.87389"
    },
    "Atalaia, BR":     {
        "cityName": "Atalaia, BR",
        "timeZone": "America/Maceio",
        "lon": "-36.02278",
        "lat": "-9.50194"
    },
    "Agudos, BR":     {
        "cityName": "Agudos, BR",
        "timeZone": "America/Sao_Paulo",
        "lon": "-48.9875",
        "lat": "-22.46917"
    },
    "Ibitinga, BR":     {
        "cityName": "Ibitinga, BR",
        "timeZone": "America/Sao_Paulo",
        "lon": "-48.82889",
        "lat": "-21.75778"
    },
    "Barra do Garças, BR":     {
        "cityName": "Barra do Garças, BR",
        "timeZone": "America/Cuiaba",
        "lon": "-52.25667",
        "lat": "-15.89"
    },
    "São Lourenço, BR":     {
        "cityName": "São Lourenço, BR",
        "timeZone": "America/Sao_Paulo",
        "lon": "-45.05444",
        "lat": "-22.11639"
    },
    "Gandu, BR":     {
        "cityName": "Gandu, BR",
        "timeZone": "America/Bahia",
        "lon": "-39.48667",
        "lat": "-13.74389"
    },
    "Tamandaré, BR":     {
        "cityName": "Tamandaré, BR",
        "timeZone": "America/Recife",
        "lon": "-35.09995",
        "lat": "-8.75632"
    },
    "Guaratinguetá, BR":     {
        "cityName": "Guaratinguetá, BR",
        "timeZone": "America/Sao_Paulo",
        "lon": "-45.1925",
        "lat": "-22.81639"
    },
    "Taquarituba, BR":     {
        "cityName": "Taquarituba, BR",
        "timeZone": "America/Sao_Paulo",
        "lon": "-49.24444",
        "lat": "-23.53306"
    },
    "Paranaíba, BR":     {
        "cityName": "Paranaíba, BR",
        "timeZone": "America/Campo_Grande",
        "lon": "-51.19083",
        "lat": "-19.67722"
    },
    "Anápolis, BR":     {
        "cityName": "Anápolis, BR",
        "timeZone": "America/Sao_Paulo",
        "lon": "-48.95278",
        "lat": "-16.32667"
    },
    "Boa Viagem, BR":     {
        "cityName": "Boa Viagem, BR",
        "timeZone": "America/Fortaleza",
        "lon": "-39.73222",
        "lat": "-5.1275"
    },
    "Trairi, BR":     {
        "cityName": "Trairi, BR",
        "timeZone": "America/Fortaleza",
        "lon": "-39.26889",
        "lat": "-3.27778"
    },
    "Dom Pedro, BR":     {
        "cityName": "Dom Pedro, BR",
        "timeZone": "America/Fortaleza",
        "lon": "-44.43857",
        "lat": "-5.03749"
    },
    "Porto Alegre, BR":     {
        "cityName": "Porto Alegre, BR",
        "timeZone": "America/Sao_Paulo",
        "lon": "-51.23",
        "lat": "-30.03306"
    },
    "Glória do Goitá, BR":     {
        "cityName": "Glória do Goitá, BR",
        "timeZone": "America/Recife",
        "lon": "-35.29278",
        "lat": "-8.00167"
    },
    "Carolina, BR":     {
        "cityName": "Carolina, BR",
        "timeZone": "America/Fortaleza",
        "lon": "-47.46218",
        "lat": "-7.33561"
    },
    "São Vicente, BR":     {
        "cityName": "São Vicente, BR",
        "timeZone": "America/Sao_Paulo",
        "lon": "-46.39194",
        "lat": "-23.96306"
    },
    "Delmiro Gouveia, BR":     {
        "cityName": "Delmiro Gouveia, BR",
        "timeZone": "America/Maceio",
        "lon": "-37.99917",
        "lat": "-9.38861"
    },
    "Toritama, BR":     {
        "cityName": "Toritama, BR",
        "timeZone": "America/Recife",
        "lon": "-36.05667",
        "lat": "-8.00667"
    },
    "Campos Sales, BR":     {
        "cityName": "Campos Sales, BR",
        "timeZone": "America/Fortaleza",
        "lon": "-40.37611",
        "lat": "-7.07444"
    },
    "Aquiraz, BR":     {
        "cityName": "Aquiraz, BR",
        "timeZone": "America/Fortaleza",
        "lon": "-38.39111",
        "lat": "-3.90139"
    },
    "Cachoeiro de Itapemirim, BR":     {
        "cityName": "Cachoeiro de Itapemirim, BR",
        "timeZone": "America/Sao_Paulo",
        "lon": "-41.11278",
        "lat": "-20.84889"
    },
    "Araraquara, BR":     {
        "cityName": "Araraquara, BR",
        "timeZone": "America/Sao_Paulo",
        "lon": "-48.17556",
        "lat": "-21.79444"
    },
    "Vitória da Conquista, BR":     {
        "cityName": "Vitória da Conquista, BR",
        "timeZone": "America/Bahia",
        "lon": "-40.83944",
        "lat": "-14.86611"
    },
    "Imbituva, BR":     {
        "cityName": "Imbituva, BR",
        "timeZone": "America/Sao_Paulo",
        "lon": "-50.60444",
        "lat": "-25.23"
    },
    "Buri, BR":     {
        "cityName": "Buri, BR",
        "timeZone": "America/Sao_Paulo",
        "lon": "-48.59278",
        "lat": "-23.7975"
    },