{
    "Fort Worth, US":     {
        "cityName": "Fort Worth, US",
        "timeZone": "America/Chicago",
        "lon": "-97.32085",
        "lat": "32.72541"
    },
    "Trzebinia, PL":     {
        "cityName": "Trzebinia, PL",
        "timeZone": "Europe/Warsaw",
        "lon": "19.46966",
        "lat": "50.15931"
    },
    "Amesbury, US":     {
        "cityName": "Amesbury, US",
        "timeZone": "America/New_York",
        "lon": "-70.93005",
        "lat": "42.85842"
    },
    "Sorocaba, BR":     {
        "cityName": "Sorocaba, BR",
        "timeZone": "America/Sao_Paulo",
        "lon": "-47.45806",
        "lat": "-23.50167"
    },
    "Diamantina, BR":     {
        "cityName": "Diamantina, BR",
        "timeZone": "America/Sao_Paulo",
        "lon": "-43.60345",
        "lat": "-18.24692"
    },
    "Varennes, CA":     {
        "cityName": "Varennes, CA",
        "timeZone": "America/Toronto",
        "lon": "-73.43246",
        "lat": "45.68338"
    },
    "Cumberland, US":     {
        "cityName": "Cumberland, US",
        "timeZone": "America/New_York",
        "lon": "-71.43284",
        "lat": "41.96677"
    },
    "Harlingen, US":     {
        "cityName": "Harlingen, US",
        "timeZone": "America/Chicago",
        "lon": "-97.6961",
        "lat": "26.19063"
    },
    "Tonoshō, JP":     {
        "cityName": "Tonoshō, JP",
        "timeZone": "Asia/Tokyo",
        "lon": "134.17017",
        "lat": "34.48047"
    },
    "Matriz de Camaragibe, BR":     {
        "cityName": "Matriz de Camaragibe, BR",
        "timeZone": "America/Maceio",
        "lon": "-35.53333",
        "lat": "-9.15167"
    },
    "Buerarema, BR":     {
        "cityName": "Buerarema, BR",
        "timeZone": "America/Bahia",
        "lon": "-39.29972",
        "lat": "-14.95944"
    },
    "Igrejinha, BR":     {
        "cityName": "Igrejinha, BR",
        "timeZone": "America/Sao_Paulo",
        "lon": "-50.79028",
        "lat": "-29.57444"
    },
    "Alice, US":     {
        "cityName": "Alice, US",
        "timeZone": "America/Chicago",
        "lon": "-98.06972",
        "lat": "27.75225"
    },
    "Newington, US":     {
        "cityName": "Newington, US",
        "timeZone": "America/New_York",
        "lon": "-72.72371",
        "lat": "41.69788"
    },
    "Rio das Pedras, BR":     {
        "cityName": "Rio das Pedras, BR",
        "timeZone": "America/Sao_Paulo",
        "lon": "-47.60611",
        "lat": "-22.84333"
    },
    "Kozienice, PL":     {
        "cityName": "Kozienice, PL",
        "timeZone": "Europe/Warsaw",
        "lon": "21.54779",
        "lat": "51.58294"
    },
    "Ipaba, BR":     {
        "cityName": "Ipaba, BR",
        "timeZone": "America/Sao_Paulo",
        "lon": "-42.41944",
        "lat": "-19.41361"
    },
    "Margate, US":     {
        "cityName": "Margate, US",
        "timeZone": "America/New_York",
        "lon": "-80.20644",
        "lat": "26.24453"
    },
    "Hongsung, KR":     {
        "cityName": "Hongsung, KR",
        "timeZone": "Asia/Seoul",
        "lon": "126.665",
        "lat": "36.6009"
    },
    "Castaños, MX":     {
        "cityName": "Castaños, MX",
        "timeZone": "America/Monterrey",
        "lon": "-101.43211",
        "lat": "26.78932"
    },
    "Tizayuca, MX":     {
        "cityName": "Tizayuca, MX",
        "timeZone": "America/Mexico_City",
        "lon": "-98.97607",
        "lat": "19.83721"
    },
    "Corner Brook, CA":     {
        "cityName": "Corner Brook, CA",
        "timeZone": "America/St_Johns",
        "lon": "-57.95202",
        "lat": "48.95001"
    },
    "Coatzintla, MX":     {
        "cityName": "Coatzintla, MX",
        "timeZone": "America/Mexico_City",
        "lon": "-97.46823",
        "lat": "20.48699"
    },
    "Muskegon, US":     {
        "cityName": "Muskegon, US",
        "timeZone": "America/Detroit",
        "lon": "-86.24839",
        "lat": "43.23418"
    },
    "Monroeville, US":     {
        "cityName": "Monroeville, US",
        "timeZone": "America/New_York",
        "lon": "-79.7881",
        "lat": "40.42118"
    },
    "Pelotas, BR":     {
        "cityName": "Pelotas, BR",
        "timeZone": "America/Sao_Paulo",
        "lon": "-52.3425",
        "lat": "-31.77194"
    },
    "Marina, US":     {
        "cityName": "Marina, US",
        "timeZone": "America/Los_Angeles",
        "lon": "-121.80217",
        "lat": "36.6844"
    },
    "Ubatã, BR":     {
        "cityName": "Ubatã, BR",
        "timeZone": "America/Bahia",
        "lon": "-39.52641",
        "lat": "-14.20906"
    },
    "Date, JP":     {
        "cityName": "Date, JP",
        "timeZone": "Asia/Tokyo",
        "lon": "140.86806",
        "lat": "42.46806"
    },
    "Igarapé Açu, BR":     {
        "cityName": "Igarapé Açu, BR",
        "timeZone": "America/Belem",
        "lon": "-47.62",
        "lat": "-1.12889"
    },
    "Łódź, PL":     {
        "cityName": "Łódź, PL",
        "timeZone": "Europe/Warsaw",
        "lon": "19.46667",
        "lat": "51.75"
    },
    "Chillum, US":     {
        "cityName": "Chillum, US",
        "timeZone": "America/New_York",
        "lon": "-76.99081",
        "lat": "38.96372"
    },
    "New Milford, US":     {
        "cityName": "New Milford, US",
        "timeZone": "America/New_York",
        "lon": "-74.01903",
        "lat": "40.9351"
    },
    "Paracatu, BR":     {
        "cityName": "Paracatu, BR",
        "timeZone": "America/Sao_Paulo",
        "lon": "-46.87472",
        "lat": "-17.22222"
    },
    "Starachowice, PL":     {
        "cityName": "Starachowice, PL",
        "timeZone": "Europe/Warsaw",
        "lon": "21.07126",
        "lat": "51.0374"
    },
    "Arapongas, BR":     {
        "cityName": "Arapongas, BR",
        "timeZone": "America/Sao_Paulo",
        "lon": "-51.42444",
        "lat": "-23.41944"
    },
    "Peto, MX":     {
        "cityName": "Peto, MX",
        "timeZone": "America/Merida",
        "lon": "-88.92282",
        "lat": "20.12776"
    },
    "Horn Lake, US":     {
        "cityName": "Horn Lake, US",
        "timeZone": "America/Chicago",
        "lon": "-90.03481",
        "lat": "34.95537"
    },
    "Montebello, US":     {
        "cityName": "Montebello, US",
        "timeZone": "America/Los_Angeles",
        "lon": "-118.10535",
        "lat": "34.00946"
    },
    "Guarulhos, BR":     {
        "cityName": "Guarulhos, BR",
        "timeZone": "America/Sao_Paulo",
        "lon": "-46.53333",
        "lat": "-23.46278"
    },
    "South Pasadena, US":     {
        "cityName": "South Pasadena, US",
        "timeZone": "America/Los_Angeles",
        "lon": "-118.15035",
        "lat": "34.11612"
    },
    "Colima, MX":     {
        "cityName": "Colima, MX",
        "timeZone": "America/Mexico_City",
        "lon": "-103.72714",
        "lat": "19.24997"
    },
    "Gierłoż, PL":     {
        "cityName": "Gierłoż, PL",
        "timeZone": "Europe/Warsaw",
        "lon": "21.49551",
        "lat": "54.08134"
    },
    "Taxco de Alarcón, MX":     {
        "cityName": "Taxco de Alarcón, MX",
        "timeZone": "America/Mexico_City",
        "lon": "-99.60592",
        "lat": "18.55462"
    },
    "Ken Caryl, US":     {
        "cityName": "Ken Caryl, US",
        "timeZone": "America/Denver",
        "lon": "-105.11221",
        "lat": "39.57582"
    },
    "Spanish Fork, US":     {
        "cityName": "Spanish Fork, US",
        "timeZone": "America/Denver",
        "lon": "-111.65492",
        "lat": "40.11496"
    },
    "Barstow, US":     {
        "cityName": "Barstow, US",
        "timeZone": "America/Los_Angeles",
        "lon": "-117.02282",
        "lat": "34.89859"
    },
    "Milpa Alta, MX":     {
        "cityName": "Milpa Alta, MX",
        "timeZone": "America/Mexico_City",
        "lon": "-99.02317",
        "lat": "19.19251"
    },
    "Caeté, BR":     {
        "cityName": "Caeté, BR",
        "timeZone": "America/Sao_Paulo",
        "lon": "-43.66972",
        "lat": "-19.88"
    },
    "Wildwood, US":     {
        "cityName": "Wildwood, US",
        "timeZone": "America/Chicago",
        "lon": "-90.6629",
        "lat": "38.58283"
    },
    "Três Lagoas, BR":     {
        "cityName": "Três Lagoas, BR",
        "timeZone": "America/Campo_Grande",
        "lon": "-51.70338",
        "lat": "-20.78765"
    },
    "Annandale, US":     {
        "cityName": "Annandale, US",
        "timeZone": "America/New_York",
        "lon": "-77.19637",
        "lat": "38.83039"
    },
    "Union City, US":     {
        "cityName": "Union City, US",
        "timeZone": "America/Los_Angeles",
        "lon": "-122.01913",
        "lat": "37.59577"
    },
    "Kameoka, JP":     {
        "cityName": "Kameoka, JP",
        "timeZone": "Asia/Tokyo",
        "lon": "135.58333",
        "lat": "35"
    },
    "Ząbki, PL":     {
        "cityName": "Ząbki, PL",
        "timeZone": "Europe/Warsaw",
        "lon": "21.10539",
        "lat": "52.29271"
    },
    "Lokoja, NG":     {
        "cityName": "Lokoja, NG",
        "timeZone": "Africa/Lagos",
        "lon": "6.74048",
        "lat": "7.79688"
    },
    "Palm Springs, US":     {
        "cityName": "Palm Springs, US",
        "timeZone": "America/Los_Angeles",
        "lon": "-116.54529",
        "lat": "33.8303"
    },
    "Rolling Meadows, US":     {
        "cityName": "Rolling Meadows, US",
        "timeZone": "America/Chicago",
        "lon": "-88.01313",
        "lat": "42.08419"
    },
    "Tsukuba, JP":     {
        "cityName": "Tsukuba, JP",
        "timeZone": "Asia/Tokyo",
        "lon": "140.1",
        "lat": "36.2"
    },
    "Wilson, US":     {
        "cityName": "Wilson, US",
        "timeZone": "America/New_York",
        "lon": "-77.91554",
        "lat": "35.72127"
    },
    "Monte Aprazível, BR":     {
        "cityName": "Monte Aprazível, BR",
        "timeZone": "America/Sao_Paulo",
        "lon": "-49.71417",
        "lat": "-20.7725"
    },
    "Lincolnia, US":     {
        "cityName": "Lincolnia, US",
        "timeZone": "America/New_York",
        "lon": "-77.14331",
        "lat": "38.81845"
    },
    "Xique Xique, BR":     {
        "cityName": "Xique Xique, BR",
        "timeZone": "America/Bahia",
        "lon": "-42.72815",
        "lat": "-10.82294"
    },
    "Ocotlán, MX":     {
        "cityName": "Ocotlán, MX",
        "timeZone": "America/Mexico_City",
        "lon": "-102.77358",
        "lat": "20.3553"
    },
    "Ironville, US":     {
        "cityName": "Ironville, US",
        "timeZone": "America/New_York",
        "lon": "-82.69238",
        "lat": "38.45647"
    },
    "West Falls Church, US":     {
        "cityName": "West Falls Church, US",
        "timeZone": "America/New_York",
        "lon": "-77.18443",
        "lat": "38.89094"
    },
    "Duncan, US":     {
        "cityName": "Duncan, US",
        "timeZone": "America/Chicago",
        "lon": "-97.95781",
        "lat": "34.5023"
    },
    "Rahway, US":     {
        "cityName": "Rahway, US",
        "timeZone": "America/New_York",
        "lon": "-74.27765",
        "lat": "40.60816"
    },
    "João Câmara, BR":     {
        "cityName": "João Câmara, BR",
        "timeZone": "America/Fortaleza",
        "lon": "-35.81972",
        "lat": "-5.5375"
    },
    "Himimachi, JP":     {
        "cityName": "Himimachi, JP",
        "timeZone": "Asia/Tokyo",
        "lon": "136.98333",
        "lat": "36.85"
    },
    "Leme, BR":     {
        "cityName": "Leme, BR",
        "timeZone": "America/Sao_Paulo",
        "lon": "-47.39028",
        "lat": "-22.18556"
    },
    "Curitiba, BR":     {
        "cityName": "Curitiba, BR",
        "timeZone": "America/Sao_Paulo",
        "lon": "-49.27306",
        "lat": "-25.42778"
    },
    "Plymouth, US":     {
        "cityName": "Plymouth, US",
        "timeZone": "America/Chicago",
        "lon": "-93.45551",
        "lat": "45.01052"
    },
    "Kamaishi, JP":     {
        "cityName": "Kamaishi, JP",
        "timeZone": "Asia/Tokyo",
        "lon": "141.86801",
        "lat": "39.27694"
    },
    "Franklin Square, US":     {
        "cityName": "Franklin Square, US",
        "timeZone": "America/New_York",
        "lon": "-73.67596",
        "lat": "40.70732"
    },
    "Ungsang, KR":     {
        "cityName": "Ungsang, KR",
        "timeZone": "Asia/Seoul",
        "lon": "129.16861",
        "lat": "35.40611"
    },
    "El Salto, MX":     {
        "cityName": "El Salto, MX",
        "timeZone": "America/Mexico_City",
        "lon": "-104.5",
        "lat": "20.33333"
    },
    "Wilmette, US":     {
        "cityName": "Wilmette, US",
        "timeZone": "America/Chicago",
        "lon": "-87.72284",
        "lat": "42.07225"
    },
    "Port Harcourt, NG":     {
        "cityName": "Port Harcourt, NG",
        "timeZone": "Africa/Lagos",
        "lon": "7.0134",
        "lat": "4.77742"
    },
    "Geidam, NG":     {
        "cityName": "Geidam, NG",
        "timeZone": "Africa/Lagos",
        "lon": "11.92649",
        "lat": "12.89439"
    },
    "Nanao, JP":     {
        "cityName": "Nanao, JP",
        "timeZone": "Asia/Tokyo",
        "lon": "136.96667",
        "lat": "37.05"
    },
    "Álvaro Obregón, MX":     {
        "cityName": "Álvaro Obregón, MX",
        "timeZone": "America/Mexico_City",
        "lon": "-99.20329",
        "lat": "19.35867"
    },
    "Ocozocoautla de Espinosa, MX":     {
        "cityName": "Ocozocoautla de Espinosa, MX",
        "timeZone": "America/Mexico_City",
        "lon": "-93.37476",
        "lat": "16.76231"
    },
    "Katsina, NG":     {
        "cityName": "Katsina, NG",
        "timeZone": "Africa/Lagos",
        "lon": "7.60177",
        "lat": "12.99082"
    },
    "João Pinheiro, BR":     {
        "cityName": "João Pinheiro, BR",
        "timeZone": "America/Sao_Paulo",
        "lon": "-46.1725",
        "lat": "-17.7425"
    },
    "Penha, BR":     {
        "cityName": "Penha, BR",
        "timeZone": "America/Sao_Paulo",
        "lon": "-48.64583",
        "lat": "-26.76944"
    },
    "Sunagawa, JP":     {
        "cityName": "Sunagawa, JP",
        "timeZone": "Asia/Tokyo",
        "lon": "141.90556",
        "lat": "43.48639"
    },
    "Pitanga, BR":     {
        "cityName": "Pitanga, BR",
        "timeZone": "America/Sao_Paulo",
        "lon": "-51.76139",
        "lat": "-24.75722"
    },
    "West Lynchburg, US":     {
        "cityName": "West Lynchburg, US",
        "timeZone": "America/New_York",
        "lon": "-79.17808",
        "lat": "37.4032"
    },
    "Towson, US":     {
        "cityName": "Towson, US",
        "timeZone": "America/New_York",
        "lon": "-76.60191",
        "lat": "39.4015"
    },
    "Hwado, KR":     {
        "cityName": "Hwado, KR",
        "timeZone": "Asia/Seoul",
        "lon": "127.3075",
        "lat": "37.6525"
    },
    "Carrboro, US":     {
        "cityName": "Carrboro, US",
        "timeZone": "America/New_York",
        "lon": "-79.07529",
        "lat": "35.91014"
    },
    "Troy, US":     {
        "cityName": "Troy, US",
        "timeZone": "America/New_York",
        "lon": "-84.20328",
        "lat": "40.0395"
    },
    "Goodyear, US":     {
        "cityName": "Goodyear, US",
        "timeZone": "America/Phoenix",
        "lon": "-112.35821",
        "lat": "33.43532"
    },
    "Noshiro, JP":     {
        "cityName": "Noshiro, JP",
        "timeZone": "Asia/Tokyo",
        "lon": "140.0274",
        "lat": "40.20838"
    },
    "Okrika, NG":     {
        "cityName": "Okrika, NG",
        "timeZone": "Africa/Lagos",
        "lon": "7.08368",
        "lat": "4.74215"
    },
    "Hiratsuka, JP":     {
        "cityName": "Hiratsuka, JP",
        "timeZone": "Asia/Tokyo",
        "lon": "139.33735",
        "lat": "35.32785"
    },
    "Idanre, NG":     {
        "cityName": "Idanre, NG",
        "timeZone": "Africa/Lagos",
        "lon": "5.1159",
        "lat": "7.1127"
    },
    "Agoura, US":     {
        "cityName": "Agoura, US",
        "timeZone": "America/Los_Angeles",
        "lon": "-118.73787",
        "lat": "34.14306"
    },
    "Jacarezinho, BR":     {
        "cityName": "Jacarezinho, BR",
        "timeZone": "America/Sao_Paulo",
        "lon": "-49.96944",
        "lat": "-23.16056"
    },
    "Timmins, CA":     {
        "cityName": "Timmins, CA",
        "timeZone": "America/Toronto",
        "lon": "-81.33312",
        "lat": "48.46686"
    },
    "Shiozawa, JP":     {
        "cityName": "Shiozawa, JP",
        "timeZone": "Asia/Tokyo",
        "lon": "138.84867",
        "lat": "37.03757"
    },
    "Brook Park, US":     {
        "cityName": "Brook Park, US",
        "timeZone": "America/New_York",
        "lon": "-81.80458",
        "lat": "41.39838"
    },
    "Guararema, BR":     {
        "cityName": "Guararema, BR",
        "timeZone": "America/Sao_Paulo",
        "lon": "-46.035",
        "lat": "-23.415"
    },
    "Tijuana, MX":     {
        "cityName": "Tijuana, MX",
        "timeZone": "America/Tijuana",
        "lon": "-117.00371",
        "lat": "32.5027"
    },
    "Betim, BR":     {
        "cityName": "Betim, BR",
        "timeZone": "America/Sao_Paulo",
        "lon": "-44.19833",
        "lat": "-19.96778"
    },
    "Minamata, JP":     {
        "cityName": "Minamata, JP",
        "timeZone": "Asia/Tokyo",
        "lon": "130.4",
        "lat": "32.21667"
    },
    "Glastonbury, US":     {
        "cityName": "Glastonbury, US",
        "timeZone": "America/New_York",
        "lon": "-72.60815",
        "lat": "41.71232"
    },
    "Cranston, US":     {
        "cityName": "Cranston, US",
        "timeZone": "America/New_York",
        "lon": "-71.43728",
        "lat": "41.77982"
    },
    "West Orange, US":     {
        "cityName": "West Orange, US",
        "timeZone": "America/New_York",
        "lon": "-74.23904",
        "lat": "40.79871"
    },
    "Tahara, JP":     {
        "cityName": "Tahara, JP",
        "timeZone": "Asia/Tokyo",
        "lon": "137.26667",
        "lat": "34.66667"
    },
    "Charqueadas, BR":     {
        "cityName": "Charqueadas, BR",
        "timeZone": "America/Sao_Paulo",
        "lon": "-51.62528",
        "lat": "-29.95472"
    },
    "Zachary, US":     {
        "cityName": "Zachary, US",
        "timeZone": "America/Chicago",
        "lon": "-91.1565",
        "lat": "30.64852"
    },
    "Itaperuna, BR":     {
        "cityName": "Itaperuna, BR",
        "timeZone": "America/Sao_Paulo",
        "lon": "-41.88778",
        "lat": "-21.205"
    },
    "Santana, BR":     {
        "cityName": "Santana, BR",
        "timeZone": "America/Belem",
        "lon": "-51.18167",
        "lat": "-0.05833"
    },
    "Ebetsu, JP":     {
        "cityName": "Ebetsu, JP",
        "timeZone": "Asia/Tokyo",
        "lon": "141.55056",
        "lat": "43.10806"
    },
    "Tlalnepantla, MX":     {
        "cityName": "Tlalnepantla, MX",
        "timeZone": "America/Mexico_City",
        "lon": "-99.19538",
        "lat": "19.54005"
    },
    "Glendora, US":     {
        "cityName": "Glendora, US",
        "timeZone": "America/Los_Angeles",
        "lon": "-117.86534",
        "lat": "34.13612"
    },
    "Tsushima, JP":     {
        "cityName": "Tsushima, JP",
        "timeZone": "Asia/Tokyo",
        "lon": "136.71667",
        "lat": "35.16667"
    },
    "Mirandopólis, BR":     {
        "cityName": "Mirandopólis, BR",
        "timeZone": "America/Sao_Paulo",
        "lon": "-51.10167",
        "lat": "-21.13361"
    },
    "Rancho Penasquitos, US":     {
        "cityName": "Rancho Penasquitos, US",
        "timeZone": "America/Los_Angeles",
        "lon": "-117.11531",
        "lat": "32.95949"
    },
    "Axochiapan, MX":     {
        "cityName": "Axochiapan, MX",
        "timeZone": "America/Mexico_City",
        "lon": "-98.75358",
        "lat": "18.50246"
    },
    "Bergenfield, US":     {
        "cityName": "Bergenfield, US",
        "timeZone": "America/New_York",
        "lon": "-73.99736",
        "lat": "40.9276"
    },
    "Champotón, MX":     {
        "cityName": "Champotón, MX",
        "timeZone": "America/Merida",
        "lon": "-90.72576",
        "lat": "19.34441"
    },
    "Muriaé, BR":     {
        "cityName": "Muriaé, BR",
        "timeZone": "America/Sao_Paulo",
        "lon": "-42.36639",
        "lat": "-21.13056"
    },
    "Kobe, JP":     {
        "cityName": "Kobe, JP",
        "timeZone": "Asia/Tokyo",
        "lon": "135.183",
        "lat": "34.6913"
    },
    "Wakayama, JP":     {
        "cityName": "Wakayama, JP",
        "timeZone": "Asia/Tokyo",
        "lon": "135.16667",
        "lat": "34.23333"
    },
    "Deerfield Beach, US":     {
        "cityName": "Deerfield Beach, US",
        "timeZone": "America/New_York",
        "lon": "-80.09977",
        "lat": "26.31841"
    },
    "Melbourne, US":     {
        "cityName": "Melbourne, US",
        "timeZone": "America/New_York",
        "lon": "-80.60811",
        "lat": "28.08363"
    },
    "Natchez, US":     {
        "cityName": "Natchez, US",
        "timeZone": "America/Chicago",
        "lon": "-91.40317",
        "lat": "31.56044"
    },
    "Ipiaú, BR":     {
        "cityName": "Ipiaú, BR",
        "timeZone": "America/Bahia",
        "lon": "-39.73948",
        "lat": "-14.13449"
    },
    "Ōmagari, JP":     {
        "cityName": "Ōmagari, JP",
        "timeZone": "Asia/Tokyo",
        "lon": "140.48333",
        "lat": "39.45"
    },
    "Surrey, CA":     {
        "cityName": "Surrey, CA",
        "timeZone": "America/Vancouver",
        "lon": "-122.82509",
        "lat": "49.10635"
    },
    "Ganye, NG":     {
        "cityName": "Ganye, NG",
        "timeZone": "Africa/Lagos",
        "lon": "12.05107",
        "lat": "8.43497"
    },
    "Seymour, US":     {
        "cityName": "Seymour, US",
        "timeZone": "America/New_York",
        "lon": "-73.07594",
        "lat": "41.39676"
    },
    "Buffalo Grove, US":     {
        "cityName": "Buffalo Grove, US",
        "timeZone": "America/Chicago",
        "lon": "-87.95979",
        "lat": "42.15141"
    },
    "Mino, JP":     {
        "cityName": "Mino, JP",
        "timeZone": "Asia/Tokyo",
        "lon": "136.91667",
        "lat": "35.53333"
    },
    "Konstancin-Jeziorna, PL":     {
        "cityName": "Konstancin-Jeziorna, PL",
        "timeZone": "Europe/Warsaw",
        "lon": "21.11761",
        "lat": "52.0938"
    },
    "Itaqui, BR":     {
        "cityName": "Itaqui, BR",
        "timeZone": "America/Sao_Paulo",
        "lon": "-56.55306",
        "lat": "-29.12528"
    },
    "Curitibanos, BR":     {
        "cityName": "Curitibanos, BR",
        "timeZone": "America/Sao_Paulo",
        "lon": "-50.58444",
        "lat": "-27.28278"
    },
    "Cieszyn, PL":     {
        "cityName": "Cieszyn, PL",
        "timeZone": "Europe/Warsaw",
        "lon": "18.63213",
        "lat": "49.75133"
    },
    "Sulphur Springs, US":     {
        "cityName": "Sulphur Springs, US",
        "timeZone": "America/Chicago",
        "lon": "-95.60107",
        "lat": "33.13845"
    },
    "Kukichūō, JP":     {
        "cityName": "Kukichūō, JP",
        "timeZone": "Asia/Tokyo",
        "lon": "139.67498",
        "lat": "36.06739"
    },
    "Susanville, US":     {
        "cityName": "Susanville, US",
        "timeZone": "America/Los_Angeles",
        "lon": "-120.65301",
        "lat": "40.41628"
    },
    "Yakima, US":     {
        "cityName": "Yakima, US",
        "timeZone": "America/Los_Angeles",
        "lon": "-120.5059",
        "lat": "46.60207"
    },
    "Ząbkowice Śląskie, PL":     {
        "cityName": "Ząbkowice Śląskie, PL",
        "timeZone": "Europe/Warsaw",
        "lon": "16.81239",
        "lat": "50.58969"
    },
    "Honchō, JP":     {
        "cityName": "Honchō, JP",
        "timeZone": "Asia/Tokyo",
        "lon": "139.98648",
        "lat": "35.70129"
    },
    "Cordeirópolis, BR":     {
        "cityName": "Cordeirópolis, BR",
        "timeZone": "America/Sao_Paulo",
        "lon": "-47.45667",
        "lat": "-22.48194"
    },
    "Kannabechō-yahiro, JP":     {
        "cityName": "Kannabechō-yahiro, JP",
        "timeZone": "Asia/Tokyo",
        "lon": "133.41796",
        "lat": "34.55808"
    },
    "Inglewood, US":     {
        "cityName": "Inglewood, US",
        "timeZone": "America/Los_Angeles",
        "lon": "-118.35313",
        "lat": "33.96168"
    },
    "Astorga, BR":     {
        "cityName": "Astorga, BR",
        "timeZone": "America/Sao_Paulo",
        "lon": "-51.66556",
        "lat": "-23.2325"
    },
    "North Bethesda, US":     {
        "cityName": "North Bethesda, US",
        "timeZone": "America/New_York",
        "lon": "-77.11887",
        "lat": "39.04455"
    },
    "Punta Gorda Isles, US":     {
        "cityName": "Punta Gorda Isles, US",
        "timeZone": "America/New_York",
        "lon": "-82.07842",
        "lat": "26.91756"
    },
    "Homer Glen, US":     {
        "cityName": "Homer Glen, US",
        "timeZone": "America/Chicago",
        "lon": "-87.93811",
        "lat": "41.60003"
    },
    "Poway, US":     {
        "cityName": "Poway, US",
        "timeZone": "America/Los_Angeles",
        "lon": "-117.03586",
        "lat": "32.96282"
    },
    "Citrus Heights, US":     {
        "cityName": "Citrus Heights, US",
        "timeZone": "America/Los_Angeles",
        "lon": "-121.28106",
        "lat": "38.70712"
    },
    "Airdrie, CA":     {
        "cityName": "Airdrie, CA",
        "timeZone": "America/Edmonton",
        "lon": "-114.03528",
        "lat": "51.30011"
    },
    "Mata de São João, BR":     {
        "cityName": "Mata de São João, BR",
        "timeZone": "America/Bahia",
        "lon": "-38.29917",
        "lat": "-12.53028"
    },
    "Englewood, US":     {
        "cityName": "Englewood, US",
        "timeZone": "America/Denver",
        "lon": "-104.98776",
        "lat": "39.64777"
    },
    "Beberibe, BR":     {
        "cityName": "Beberibe, BR",
        "timeZone": "America/Fortaleza",
        "lon": "-38.13056",
        "lat": "-4.17972"
    },
    "Kasama, JP":     {
        "cityName": "Kasama, JP",
        "timeZone": "Asia/Tokyo",
        "lon": "140.26667",
        "lat": "36.38333"
    },
    "Glassboro, US":     {
        "cityName": "Glassboro, US",
        "timeZone": "America/New_York",
        "lon": "-75.11184",
        "lat": "39.70289"
    },
    "Laplace, US":     {
        "cityName": "Laplace, US",
        "timeZone": "America/Chicago",
        "lon": "-90.48147",
        "lat": "30.06698"
    },
    "Hemet, US":     {
        "cityName": "Hemet, US",
        "timeZone": "America/Los_Angeles",
        "lon": "-116.97307",
        "lat": "33.74761"
    },
    "Tantoyuca, MX":     {
        "cityName": "Tantoyuca, MX",
        "timeZone": "America/Mexico_City",
        "lon": "-98.2257",
        "lat": "21.35064"
    },
    "Concórdia, BR":     {
        "cityName": "Concórdia, BR",
        "timeZone": "America/Sao_Paulo",
        "lon": "-52.02778",
        "lat": "-27.23417"
    },
    "Rome, US":     {
        "cityName": "Rome, US",
        "timeZone": "America/New_York",
        "lon": "-75.45573",
        "lat": "43.21285"
    },
    "Woburn, US":     {
        "cityName": "Woburn, US",
        "timeZone": "America/New_York",
        "lon": "-71.15228",
        "lat": "42.47926"
    },
    "Waltham, US":     {
        "cityName": "Waltham, US",
        "timeZone": "America/New_York",
        "lon": "-71.23561",
        "lat": "42.37649"
    },
    "New Springville, US":     {
        "cityName": "New Springville, US",
        "timeZone": "America/New_York",
        "lon": "-74.1632",
        "lat": "40.59344"
    },
    "South Bend, US":     {
        "cityName": "South Bend, US",
        "timeZone": "America/Indiana/Indianapolis",
        "lon": "-86.25001",
        "lat": "41.68338"
    },
    "Jasmine Estates, US":     {
        "cityName": "Jasmine Estates, US",
        "timeZone": "America/New_York",
        "lon": "-82.6901",
        "lat": "28.29306"
    },
    "Capâo Bonito, BR":     {
        "cityName": "Capâo Bonito, BR",
        "timeZone": "America/Sao_Paulo",
        "lon": "-48.34944",
        "lat": "-24.00583"
    },
    "Morrisville, US":     {
        "cityName": "Morrisville, US",
        "timeZone": "America/New_York",
        "lon": "-78.82556",
        "lat": "35.82348"
    },
    "Lloydminster, CA":     {
        "cityName": "Lloydminster, CA",
        "timeZone": "America/Edmonton",
        "lon": "-110.00157",
        "lat": "53.28346"
    },
    "Kamakura, JP":     {
        "cityName": "Kamakura, JP",
        "timeZone": "Asia/Tokyo",
        "lon": "139.55028",
        "lat": "35.30889"
    },
    "Pinecrest, US":     {
        "cityName": "Pinecrest, US",
        "timeZone": "America/New_York",
        "lon": "-80.30811",
        "lat": "25.66705"
    },
    "Birigui, BR":     {
        "cityName": "Birigui, BR",
        "timeZone": "America/Sao_Paulo",
        "lon": "-50.34",
        "lat": "-21.28861"
    },
    "Florissant, US":     {
        "cityName": "Florissant, US",
        "timeZone": "America/Chicago",
        "lon": "-90.32261",
        "lat": "38.78922"
    },
    "Morrisania, US":     {
        "cityName": "Morrisania, US",
        "timeZone": "America/New_York",
        "lon": "-73.90653",
        "lat": "40.82927"
    },
    "Juchitán de Zaragoza, MX":     {
        "cityName": "Juchitán de Zaragoza, MX",
        "timeZone": "America/Mexico_City",
        "lon": "-95.01975",
        "lat": "16.43603"
    },
    "West Little River, US":     {
        "cityName": "West Little River, US",
        "timeZone": "America/New_York",
        "lon": "-80.23699",
        "lat": "25.85704"
    },
    "Round Lake Beach, US":     {
        "cityName": "Round Lake Beach, US",
        "timeZone": "America/Chicago",
        "lon": "-88.09008",
        "lat": "42.37169"
    },
    "Hajnówka, PL":     {
        "cityName": "Hajnówka, PL",
        "timeZone": "Europe/Warsaw",
        "lon": "23.58122",
        "lat": "52.74328"
    },
    "East Pensacola Heights, US":     {
        "cityName": "East Pensacola Heights, US",
        "timeZone": "America/Chicago",
        "lon": "-87.17997",
        "lat": "30.42881"
    },
    "Araruama, BR":     {
        "cityName": "Araruama, BR",
        "timeZone": "America/Sao_Paulo",
        "lon": "-42.34306",
        "lat": "-22.87278"
    },
    "Epe, NG":     {
        "cityName": "Epe, NG",
        "timeZone": "Africa/Lagos",
        "lon": "3.98336",
        "lat": "6.58412"
    },
    "East Saint Louis, US":     {
        "cityName": "East Saint Louis, US",
        "timeZone": "America/Chicago",
        "lon": "-90.15094",
        "lat": "38.6245"
    },
    "Winter Haven, US":     {
        "cityName": "Winter Haven, US",
        "timeZone": "America/New_York",
        "lon": "-81.73286",
        "lat": "28.02224"
    },
    "Rockville Centre, US":     {
        "cityName": "Rockville Centre, US",
        "timeZone": "America/New_York",
        "lon": "-73.64124",
        "lat": "40.65871"
    },
    "Brockville, CA":     {
        "cityName": "Brockville, CA",
        "timeZone": "America/Toronto",
        "lon": "-75.68705",
        "lat": "44.59132"
    },
    "Johnston, US":     {
        "cityName": "Johnston, US",
        "timeZone": "America/New_York",
        "lon": "-71.50675",
        "lat": "41.82186"
    },
    "North Highlands, US":     {
        "cityName": "North Highlands, US",
        "timeZone": "America/Los_Angeles",
        "lon": "-121.37217",
        "lat": "38.68574"
    },
    "Ostrów Wielkopolski, PL":     {
        "cityName": "Ostrów Wielkopolski, PL",
        "timeZone": "Europe/Warsaw",
        "lon": "17.80686",
        "lat": "51.65501"
    },
    "Nazaré, BR":     {
        "cityName": "Nazaré, BR",
        "timeZone": "America/Bahia",
        "lon": "-39.01444",
        "lat": "-13.035"
    },
    "Kunwi, KR":     {
        "cityName": "Kunwi, KR",
        "timeZone": "Asia/Seoul",
        "lon": "128.57278",
        "lat": "36.23472"
    },
    "Three Lakes, US":     {
        "cityName": "Three Lakes, US",
        "timeZone": "America/New_York",
        "lon": "-80.39839",
        "lat": "25.64205"
    },
    "Carmo do Paranaíba, BR":     {
        "cityName": "Carmo do Paranaíba, BR",
        "timeZone": "America/Sao_Paulo",
        "lon": "-46.31611",
        "lat": "-19.00083"
    },
    "Nederland, US":     {
        "cityName": "Nederland, US",
        "timeZone": "America/Chicago",
        "lon": "-93.9924",
        "lat": "29.97438"
    },
    "Beloit, US":     {
        "cityName": "Beloit, US",
        "timeZone": "America/Chicago",
        "lon": "-89.03178",
        "lat": "42.50835"
    },
    "Coatepec, MX":     {
        "cityName": "Coatepec, MX",
        "timeZone": "America/Mexico_City",
        "lon": "-96.96148",
        "lat": "19.45229"
    },
    "Pabianice, PL":     {
        "cityName": "Pabianice, PL",
        "timeZone": "Europe/Warsaw",
        "lon": "19.35473",
        "lat": "51.66446"
    },
    "Ariquemes, BR":     {
        "cityName": "Ariquemes, BR",
        "timeZone": "America/Porto_Velho",
        "lon": "-63.04083",
        "lat": "-9.91333"
    },
    "Fountain Valley, US":     {
        "cityName": "Fountain Valley, US",
        "timeZone": "America/Los_Angeles",
        "lon": "-117.95367",
        "lat": "33.70918"
    },
    "Jaraguá, BR":     {
        "cityName": "Jaraguá, BR",
        "timeZone": "America/Sao_Paulo",
        "lon": "-49.33444",
        "lat": "-15.75694"
    },
    "Prairieville, US":     {
        "cityName": "Prairieville, US",
        "timeZone": "America/Chicago",
        "lon": "-90.97205",
        "lat": "30.30297"
    },
    "New Brunswick, US":     {
        "cityName": "New Brunswick, US",
        "timeZone": "America/New_York",
        "lon": "-74.45182",
        "lat": "40.48622"
    },
    "Overland Park, US":     {
        "cityName": "Overland Park, US",
        "timeZone": "America/Chicago",
        "lon": "-94.67079",
        "lat": "38.98223"
    },
    "Sunland, US":     {
        "cityName": "Sunland, US",
        "timeZone": "America/Los_Angeles",
        "lon": "-118.3023",
        "lat": "34.26695"
    },
    "Duarte, US":     {
        "cityName": "Duarte, US",
        "timeZone": "America/Los_Angeles",
        "lon": "-117.97729",
        "lat": "34.13945"
    },
    "South Hadley, US":     {
        "cityName": "South Hadley, US",
        "timeZone": "America/New_York",
        "lon": "-72.57453",
        "lat": "42.25842"
    },
    "Tokuyama, JP":     {
        "cityName": "Tokuyama, JP",
        "timeZone": "Asia/Tokyo",
        "lon": "131.81667",
        "lat": "34.05"
    },
    "Yachimata, JP":     {
        "cityName": "Yachimata, JP",
        "timeZone": "Asia/Tokyo",
        "lon": "140.31667",
        "lat": "35.65"
    },
    "Lebanon, US":     {
        "cityName": "Lebanon, US",
        "timeZone": "America/Los_Angeles",
        "lon": "-122.90703",
        "lat": "44.53651"
    },
    "Iporá, BR":     {
        "cityName": "Iporá, BR",
        "timeZone": "America/Sao_Paulo",
        "lon": "-51.11778",
        "lat": "-16.44194"
    },
    "Kainan, JP":     {
        "cityName": "Kainan, JP",
        "timeZone": "Asia/Tokyo",
        "lon": "135.2",
        "lat": "34.15"
    },
    "Comalcalco, MX":     {
        "cityName": "Comalcalco, MX",
        "timeZone": "America/Mexico_City",
        "lon": "-93.22397",
        "lat": "18.26316"
    },
    "Redford, US":     {
        "cityName": "Redford, US",
        "timeZone": "America/Detroit",
        "lon": "-83.2966",
        "lat": "42.38337"
    },
    "Kariya, JP":     {
        "cityName": "Kariya, JP",
        "timeZone": "Asia/Tokyo",
        "lon": "134.38734",
        "lat": "34.75136"
    },
    "Norton, US":     {
        "cityName": "Norton, US",
        "timeZone": "America/New_York",
        "lon": "-71.18699",
        "lat": "41.96677"
    },
    "Koesan, KR":     {
        "cityName": "Koesan, KR",
        "timeZone": "Asia/Seoul",
        "lon": "127.79472",
        "lat": "36.81083"
    },
    "Shiki, JP":     {
        "cityName": "Shiki, JP",
        "timeZone": "Asia/Tokyo",
        "lon": "139.58333",
        "lat": "35.83333"
    },
    "Pasadena, US":     {
        "cityName": "Pasadena, US",
        "timeZone": "America/Los_Angeles",
        "lon": "-118.14452",
        "lat": "34.14778"
    },
    "Stephenville, US":     {
        "cityName": "Stephenville, US",
        "timeZone": "America/Chicago",
        "lon": "-98.20226",
        "lat": "32.2207"
    },
    "Moroleón, MX":     {
        "cityName": "Moroleón, MX",
        "timeZone": "America/Mexico_City",
        "lon": "-101.19208",
        "lat": "20.12571"
    },
    "New Philadelphia, US":     {
        "cityName": "New Philadelphia, US",
        "timeZone": "America/New_York",
        "lon": "-81.44567",
        "lat": "40.48979"
    },
    "Norristown, US":     {
        "cityName": "Norristown, US",
        "timeZone": "America/New_York",
        "lon": "-75.3399",
        "lat": "40.1215"
    },
    "Santa Anita, MX":     {
        "cityName": "Santa Anita, MX",
        "timeZone": "America/Mexico_City",
        "lon": "-103.44",
        "lat": "20.55056"
    },
    "Acton, US":     {
        "cityName": "Acton, US",
        "timeZone": "America/New_York",
        "lon": "-71.43284",
        "lat": "42.48509"
    },
    "Goshogawara, JP":     {
        "cityName": "Goshogawara, JP",
        "timeZone": "Asia/Tokyo",
        "lon": "140.44139",
        "lat": "40.80444"
    },
    "Santiago Ixcuintla, MX":     {
        "cityName": "Santiago Ixcuintla, MX",
        "timeZone": "America/Mazatlan",
        "lon": "-105.20844",
        "lat": "21.81295"
    },
    "Alto Lucero, MX":     {
        "cityName": "Alto Lucero, MX",
        "timeZone": "America/Mexico_City",
        "lon": "-97.44194",
        "lat": "20.95361"
    },
    "Morris Heights, US":     {
        "cityName": "Morris Heights, US",
        "timeZone": "America/New_York",
        "lon": "-73.91986",
        "lat": "40.84982"
    },
    "Tepic, MX":     {
        "cityName": "Tepic, MX",
        "timeZone": "America/Mazatlan",
        "lon": "-104.89569",
        "lat": "21.50951"
    },
    "Vigia, BR":     {
        "cityName": "Vigia, BR",
        "timeZone": "America/Belem",
        "lon": "-48.14167",
        "lat": "-0.85833"
    },
    "Fort St. John, CA":     {
        "cityName": "Fort St. John, CA",
        "timeZone": "America/Dawson_Creek",
        "lon": "-120.85292",
        "lat": "56.24988"
    },
    "Iida, JP":     {
        "cityName": "Iida, JP",
        "timeZone": "Asia/Tokyo",
        "lon": "137.82074",
        "lat": "35.51965"
    },
    "Ashburn, US":     {
        "cityName": "Ashburn, US",
        "timeZone": "America/New_York",
        "lon": "-77.48749",
        "lat": "39.04372"
    },
    "Caçador, BR":     {
        "cityName": "Caçador, BR",
        "timeZone": "America/Sao_Paulo",
        "lon": "-51.015",
        "lat": "-26.77528"
    },
    "Loveland, US":     {
        "cityName": "Loveland, US",
        "timeZone": "America/Denver",
        "lon": "-105.07498",
        "lat": "40.39776"
    },
    "Tlalpan, MX":     {
        "cityName": "Tlalpan, MX",
        "timeZone": "America/Mexico_City",
        "lon": "-99.16787",
        "lat": "19.29707"
    },
    "Dyersburg, US":     {
        "cityName": "Dyersburg, US",
        "timeZone": "America/Chicago",
        "lon": "-89.38563",
        "lat": "36.03452"
    },
    "Motegi, JP":     {
        "cityName": "Motegi, JP",
        "timeZone": "Asia/Tokyo",
        "lon": "140.18333",
        "lat": "36.51667"
    },
    "Irapuato, MX":     {
        "cityName": "Irapuato, MX",
        "timeZone": "America/Mexico_City",
        "lon": "-101.35628",
        "lat": "20.67675"
    },
    "Ansan-si, KR":     {
        "cityName": "Ansan-si, KR",
        "timeZone": "Asia/Seoul",
        "lon": "126.82194",
        "lat": "37.32361"
    },
    "Shawnee, US":     {
        "cityName": "Shawnee, US",
        "timeZone": "America/Chicago",
        "lon": "-96.9253",
        "lat": "35.32729"
    },
    "Borough Park, US":     {
        "cityName": "Borough Park, US",
        "timeZone": "America/New_York",
        "lon": "-73.99681",
        "lat": "40.63399"
    },
    "Igboho, NG":     {
        "cityName": "Igboho, NG",
        "timeZone": "Africa/Lagos",
        "lon": "3.75628",
        "lat": "8.83784"
    },
    "Chaska, US":     {
        "cityName": "Chaska, US",
        "timeZone": "America/Chicago",
        "lon": "-93.60218",
        "lat": "44.78941"
    },
    "Afikpo, NG":     {
        "cityName": "Afikpo, NG",
        "timeZone": "Africa/Lagos",
        "lon": "7.93534",
        "lat": "5.89258"
    },
    "East Norwalk, US":     {
        "cityName": "East Norwalk, US",
        "timeZone": "America/New_York",
        "lon": "-73.39845",
        "lat": "41.10565"
    },
    "Limoeiro, BR":     {
        "cityName": "Limoeiro, BR",
        "timeZone": "America/Recife",
        "lon": "-35.45028",
        "lat": "-7.87472"
    },
    "Edgewood, US":     {
        "cityName": "Edgewood, US",
        "timeZone": "America/New_York",
        "lon": "-76.2944",
        "lat": "39.41872"
    },
    "West Raleigh, US":     {
        "cityName": "West Raleigh, US",
        "timeZone": "America/New_York",
        "lon": "-78.66389",
        "lat": "35.78682"
    },
    "La Presa, US":     {
        "cityName": "La Presa, US",
        "timeZone": "America/Los_Angeles",
        "lon": "-116.99725",
        "lat": "32.70811"
    },
    "Lewisville, US":     {
        "cityName": "Lewisville, US",
        "timeZone": "America/Chicago",
        "lon": "-96.99417",
        "lat": "33.04623"
    },
    "Itajaí, BR":     {
        "cityName": "Itajaí, BR",
        "timeZone": "America/Sao_Paulo",
        "lon": "-48.66194",
        "lat": "-26.90778"
    },
    "Mesquite, US":     {
        "cityName": "Mesquite, US",
        "timeZone": "America/Los_Angeles",
        "lon": "-114.06719",
        "lat": "36.80553"
    },
    "Paragould, US":     {
        "cityName": "Paragould, US",
        "timeZone": "America/Chicago",
        "lon": "-90.49733",
        "lat": "36.0584"
    },
    "Piúma, BR":     {
        "cityName": "Piúma, BR",
        "timeZone": "America/Sao_Paulo",
        "lon": "-40.72194",
        "lat": "-20.83778"
    },
    "Aurora, US":     {
        "cityName": "Aurora, US",
        "timeZone": "America/Denver",
        "lon": "-104.83192",
        "lat": "39.72943"
    },
    "Aiken, US":     {
        "cityName": "Aiken, US",
        "timeZone": "America/New_York",
        "lon": "-81.71955",
        "lat": "33.56042"
    },
    "São Gonçalo do Amarante, BR":     {
        "cityName": "São Gonçalo do Amarante, BR",
        "timeZone": "America/Fortaleza",
        "lon": "-38.96833",
        "lat": "-3.60722"
    },
    "Shinshiro, JP":     {
        "cityName": "Shinshiro, JP",
        "timeZone": "Asia/Tokyo",
        "lon": "137.5",
        "lat": "34.9"
    },
    "Poplar Bluff, US":     {
        "cityName": "Poplar Bluff, US",
        "timeZone": "America/Chicago",
        "lon": "-90.39289",
        "lat": "36.757"
    },
    "Gongju, KR":     {
        "cityName": "Gongju, KR",
        "timeZone": "Asia/Seoul",
        "lon": "127.12472",
        "lat": "36.45556"
    },
    "Antelope, US":     {
        "cityName": "Antelope, US",
        "timeZone": "America/Los_Angeles",
        "lon": "-121.32995",
        "lat": "38.70824"
    },
    "West Covina, US":     {
        "cityName": "West Covina, US",
        "timeZone": "America/Los_Angeles",
        "lon": "-117.93895",
        "lat": "34.06862"
    },
    "Içara, BR":     {
        "cityName": "Içara, BR",
        "timeZone": "America/Sao_Paulo",
        "lon": "-49.3",
        "lat": "-28.71333"
    },
    "Jollyville, US":     {
        "cityName": "Jollyville, US",
        "timeZone": "America/Chicago",
        "lon": "-97.77501",
        "lat": "30.4427"
    },
    "Anseong, KR":     {
        "cityName": "Anseong, KR",
        "timeZone": "Asia/Seoul",
        "lon": "127.27028",
        "lat": "37.01083"
    },
    "Socorro Mission Number 1 Colonia, US":     {
        "cityName": "Socorro Mission Number 1 Colonia, US",
        "timeZone": "America/Denver",
        "lon": "-106.29054",
        "lat": "31.63622"
    },
    "Kabaty, PL":     {
        "cityName": "Kabaty, PL",
        "timeZone": "Europe/Warsaw",
        "lon": "21.08148",
        "lat": "52.13012"
    },
    "Naha, JP":     {
        "cityName": "Naha, JP",
        "timeZone": "Asia/Tokyo",
        "lon": "127.68333",
        "lat": "26.21667"
    },
    "Radcliff, US":     {
        "cityName": "Radcliff, US",
        "timeZone": "America/New_York",
        "lon": "-85.94913",
        "lat": "37.84035"
    },
    "San Luis, US":     {
        "cityName": "San Luis, US",
        "timeZone": "America/Phoenix",
        "lon": "-114.78218",
        "lat": "32.487"
    },
    "Mariana, BR":     {
        "cityName": "Mariana, BR",
        "timeZone": "America/Sao_Paulo",
        "lon": "-43.41611",
        "lat": "-20.37778"
    },
    "Tallmadge, US":     {
        "cityName": "Tallmadge, US",
        "timeZone": "America/New_York",
        "lon": "-81.44178",
        "lat": "41.10145"
    },
    "Iperu, NG":     {
        "cityName": "Iperu, NG",
        "timeZone": "Africa/Lagos",
        "lon": "3.66557",
        "lat": "6.91002"
    },
    "Gryfino, PL":     {
        "cityName": "Gryfino, PL",
        "timeZone": "Europe/Warsaw",
        "lon": "14.48831",
        "lat": "53.25243"
    },
    "Camp Springs, US":     {
        "cityName": "Camp Springs, US",
        "timeZone": "America/New_York",
        "lon": "-76.90664",
        "lat": "38.804"
    },
    "Deba, NG":     {
        "cityName": "Deba, NG",
        "timeZone": "Africa/Lagos",
        "lon": "11.3871",
        "lat": "10.21187"
    },
    "Imperial, US":     {
        "cityName": "Imperial, US",
        "timeZone": "America/Los_Angeles",
        "lon": "-115.56944",
        "lat": "32.84755"
    },
    "Capanema, BR":     {
        "cityName": "Capanema, BR",
        "timeZone": "America/Belem",
        "lon": "-47.18083",
        "lat": "-1.19583"
    },
    "Fuchūchō, JP":     {
        "cityName": "Fuchūchō, JP",
        "timeZone": "Asia/Tokyo",
        "lon": "133.23513",
        "lat": "34.5735"
    },
    "Szczytno, PL":     {
        "cityName": "Szczytno, PL",
        "timeZone": "Europe/Warsaw",
        "lon": "20.98747",
        "lat": "53.56259"
    },
    "Folsom, US":     {
        "cityName": "Folsom, US",
        "timeZone": "America/Los_Angeles",
        "lon": "-121.17606",
        "lat": "38.67796"
    },
    "Moses Lake, US":     {
        "cityName": "Moses Lake, US",
        "timeZone": "America/Los_Angeles",
        "lon": "-119.27808",
        "lat": "47.13014"
    },
    "Iowa City, US":     {
        "cityName": "Iowa City, US",
        "timeZone": "America/Chicago",
        "lon": "-91.53017",
        "lat": "41.66113"
    },
    "Akita, JP":     {
        "cityName": "Akita, JP",
        "timeZone": "Asia/Tokyo",
        "lon": "140.1",
        "lat": "39.71667"
    },
    "Coyotepec, MX":     {
        "cityName": "Coyotepec, MX",
        "timeZone": "America/Mexico_City",
        "lon": "-99.21295",
        "lat": "19.77722"
    },
    "West Fargo, US":     {
        "cityName": "West Fargo, US",
        "timeZone": "America/Chicago",
        "lon": "-96.90036",
        "lat": "46.87497"
    },
    "Teaneck, US":     {
        "cityName": "Teaneck, US",
        "timeZone": "America/New_York",
        "lon": "-74.01597",
        "lat": "40.8976"
    },
    "Fairbanks, US":     {
        "cityName": "Fairbanks, US",
        "timeZone": "America/Anchorage",
        "lon": "-147.71639",
        "lat": "64.83778"
    },
    "Przasnysz, PL":     {
        "cityName": "Przasnysz, PL",
        "timeZone": "Europe/Warsaw",
        "lon": "20.88029",
        "lat": "53.01907"
    },
    "Flint, US":     {
        "cityName": "Flint, US",
        "timeZone": "America/Detroit",
        "lon": "-83.68746",
        "lat": "43.01253"
    },
    "Łuków, PL":     {
        "cityName": "Łuków, PL",
        "timeZone": "Europe/Warsaw",
        "lon": "22.37956",
        "lat": "51.929"
    },
    "Skokie, US":     {
        "cityName": "Skokie, US",
        "timeZone": "America/Chicago",
        "lon": "-87.73339",
        "lat": "42.03336"
    },
    "Burlington, CA":     {
        "cityName": "Burlington, CA",
        "timeZone": "America/Toronto",
        "lon": "-79.83713",
        "lat": "43.38621"
    },
    "Várzea Alegre, BR":     {
        "cityName": "Várzea Alegre, BR",
        "timeZone": "America/Fortaleza",
        "lon": "-40.38333",
        "lat": "-5.35"
    },
    "Matsushima, JP":     {
        "cityName": "Matsushima, JP",
        "timeZone": "Asia/Tokyo",
        "lon": "141.06105",
        "lat": "38.37357"
    },
    "Conselheiro Lafaiete, BR":     {
        "cityName": "Conselheiro Lafaiete, BR",
        "timeZone": "America/Sao_Paulo",
        "lon": "-43.78611",
        "lat": "-20.66028"
    },
    "Brant, CA":     {
        "cityName": "Brant, CA",
        "timeZone": "America/Toronto",
        "lon": "-80.34967",
        "lat": "43.1334"
    },
    "Parlier, US":     {
        "cityName": "Parlier, US",
        "timeZone": "America/Los_Angeles",
        "lon": "-119.52707",
        "lat": "36.61162"
    },
    "Perry Hall, US":     {
        "cityName": "Perry Hall, US",
        "timeZone": "America/New_York",
        "lon": "-76.46357",
        "lat": "39.41261"
    },
    "Ilhabela, BR":     {
        "cityName": "Ilhabela, BR",
        "timeZone": "America/Sao_Paulo",
        "lon": "-45.35806",
        "lat": "-23.77806"
    },
    "Sakata, JP":     {
        "cityName": "Sakata, JP",
        "timeZone": "Asia/Tokyo",
        "lon": "139.855",
        "lat": "38.91667"
    },
    "Iselin, US":     {
        "cityName": "Iselin, US",
        "timeZone": "America/New_York",
        "lon": "-74.32237",
        "lat": "40.57538"
    },
    "Campo Grande, BR":     {
        "cityName": "Campo Grande, BR",
        "timeZone": "America/Campo_Grande",
        "lon": "-54.64639",
        "lat": "-20.44278"
    },
    "Sedalia, US":     {
        "cityName": "Sedalia, US",
        "timeZone": "America/Chicago",
        "lon": "-93.22826",
        "lat": "38.70446"
    },
    "Sault Ste. Marie, CA":     {
        "cityName": "Sault Ste. Marie, CA",
        "timeZone": "America/Toronto",
        "lon": "-84.33325",
        "lat": "46.51677"
    },
    "South Gate, US":     {
        "cityName": "South Gate, US",
        "timeZone": "America/Los_Angeles",
        "lon": "-118.21202",
        "lat": "33.95474"
    },
    "El Cajon, US":     {
        "cityName": "El Cajon, US",
        "timeZone": "America/Los_Angeles",
        "lon": "-116.96253",
        "lat": "32.79477"
    },
    "Ōme, JP":     {
        "cityName": "Ōme, JP",
        "timeZone": "Asia/Tokyo",
        "lon": "139.24306",
        "lat": "35.78389"
    },
    "Martha Lake, US":     {
        "cityName": "Martha Lake, US",
        "timeZone": "America/Los_Angeles",
        "lon": "-122.2393",
        "lat": "47.85093"
    },
    "Oakville, CA":     {
        "cityName": "Oakville, CA",
        "timeZone": "America/Toronto",
        "lon": "-79.68292",
        "lat": "43.45011"
    },
    "Ceres, BR":     {
        "cityName": "Ceres, BR",
        "timeZone": "America/Sao_Paulo",
        "lon": "-49.59833",
        "lat": "-15.30833"
    },
    "Apatzingán, MX":     {
        "cityName": "Apatzingán, MX",
        "timeZone": "America/Mexico_City",
        "lon": "-102.35704",
        "lat": "19.08864"
    },
    "Daejeon, KR":     {
        "cityName": "Daejeon, KR",
        "timeZone": "Asia/Seoul",
        "lon": "127.41972",
        "lat": "36.32139"
    },
    "São Francisco, BR":     {
        "cityName": "São Francisco, BR",
        "timeZone": "America/Sao_Paulo",
        "lon": "-44.86444",
        "lat": "-15.94861"
    },
    "Prata, BR":     {
        "cityName": "Prata, BR",
        "timeZone": "America/Sao_Paulo",
        "lon": "-48.92417",
        "lat": "-19.30722"
    },
    "Chinch'ŏn, KR":     {
        "cityName": "Chinch'ŏn, KR",
        "timeZone": "Asia/Seoul",
        "lon": "127.44333",
        "lat": "36.85667"
    },
    "Lincoln, US":     {
        "cityName": "Lincoln, US",
        "timeZone": "America/New_York",
        "lon": "-71.435",
        "lat": "41.92111"
    },
    "Nipomo, US":     {
        "cityName": "Nipomo, US",
        "timeZone": "America/Los_Angeles",
        "lon": "-120.476",
        "lat": "35.04275"
    },
    "Santa Clarita, US":     {
        "cityName": "Santa Clarita, US",
        "timeZone": "America/Los_Angeles",
        "lon": "-118.54259",
        "lat": "34.39166"
    },
    "Teoloyucan, MX":     {
        "cityName": "Teoloyucan, MX",
        "timeZone": "America/Mexico_City",
        "lon": "-99.18113",
        "lat": "19.74423"
    },
    "Manhumirim, BR":     {
        "cityName": "Manhumirim, BR",
        "timeZone": "America/Sao_Paulo",
        "lon": "-41.95806",
        "lat": "-20.35778"
    },
    "Itapipoca, BR":     {
        "cityName": "Itapipoca, BR",
        "timeZone": "America/Fortaleza",
        "lon": "-39.57861",
        "lat": "-3.49444"
    },
    "Woodrow, US":     {
        "cityName": "Woodrow, US",
        "timeZone": "America/New_York",
        "lon": "-74.19764",
        "lat": "40.54344"
    },
    "Buckhall, US":     {
        "cityName": "Buckhall, US",
        "timeZone": "America/New_York",
        "lon": "-77.4311",
        "lat": "38.73178"
    },
    "Środa Wielkopolska, PL":     {
        "cityName": "Środa Wielkopolska, PL",
        "timeZone": "Europe/Warsaw",
        "lon": "17.27617",
        "lat": "52.22843"
    },
    "Santa Rita do Sapucaí, BR":     {
        "cityName": "Santa Rita do Sapucaí, BR",
        "timeZone": "America/Sao_Paulo",
        "lon": "-45.70333",
        "lat": "-22.25222"
    },
    "Tejupilco de Hidalgo, MX":     {
        "cityName": "Tejupilco de Hidalgo, MX",
        "timeZone": "America/Mexico_City",
        "lon": "-100.15275",
        "lat": "18.90475"
    },
    "Creve Coeur, US":     {
        "cityName": "Creve Coeur, US",
        "timeZone": "America/Chicago",
        "lon": "-90.42262",
        "lat": "38.66089"
    },
    "East Los Angeles, US":     {
        "cityName": "East Los Angeles, US",
        "timeZone": "America/Los_Angeles",
        "lon": "-118.17202",
        "lat": "34.0239"
    },
    "Campos dos Goytacazes, BR":     {
        "cityName": "Campos dos Goytacazes, BR",
        "timeZone": "America/Sao_Paulo",
        "lon": "-41.33044",
        "lat": "-21.75227"
    },
    "Onoda, JP":     {
        "cityName": "Onoda, JP",
        "timeZone": "Asia/Tokyo",
        "lon": "131.18361",
        "lat": "34.00139"
    },
    "McKeesport, US":     {
        "cityName": "McKeesport, US",
        "timeZone": "America/New_York",
        "lon": "-79.86422",
        "lat": "40.34785"
    },
    "Nazaré da Mata, BR":     {
        "cityName": "Nazaré da Mata, BR",
        "timeZone": "America/Recife",
        "lon": "-35.22778",
        "lat": "-7.74167"
    },
    "Cascavel, BR":     {
        "cityName": "Cascavel, BR",
        "timeZone": "America/Sao_Paulo",
        "lon": "-53.45528",
        "lat": "-24.95583"
    },
    "Pompano Beach, US":     {
        "cityName": "Pompano Beach, US",
        "timeZone": "America/New_York",
        "lon": "-80.12477",
        "lat": "26.23786"
    },
    "El Segundo, US":     {
        "cityName": "El Segundo, US",
        "timeZone": "America/Los_Angeles",
        "lon": "-118.41647",
        "lat": "33.91918"
    },
    "São João da Boa Vista, BR":     {
        "cityName": "São João da Boa Vista, BR",
        "timeZone": "America/Sao_Paulo",
        "lon": "-46.79806",
        "lat": "-21.96917"
    },
    "Crystal, US":     {
        "cityName": "Crystal, US",
        "timeZone": "America/Chicago",
        "lon": "-93.36023",
        "lat": "45.03274"
    },
    "Mombaça, BR":     {
        "cityName": "Mombaça, BR",
        "timeZone": "America/Fortaleza",
        "lon": "-39.6275",
        "lat": "-5.74306"
    },
    "Praga Północ, PL":     {
        "cityName": "Praga Północ, PL",
        "timeZone": "Europe/Warsaw",
        "lon": "21.03472",
        "lat": "52.25443"
    },
    "Chiryū, JP":     {
        "cityName": "Chiryū, JP",
        "timeZone": "Asia/Tokyo",
        "lon": "137.03333",
        "lat": "35"
    },
    "Las Pintas de Arriba, MX":     {
        "cityName": "Las Pintas de Arriba, MX",
        "timeZone": "America/Mexico_City",
        "lon": "-103.32345",
        "lat": "20.57376"
    },
    "Streamwood, US":     {
        "cityName": "Streamwood, US",
        "timeZone": "America/Chicago",
        "lon": "-88.17841",
        "lat": "42.02558"
    },
    "Conceição das Alagoas, BR":     {
        "cityName": "Conceição das Alagoas, BR",
        "timeZone": "America/Sao_Paulo",
        "lon": "-48.38833",
        "lat": "-19.91472"
    },
    "Idaho Falls, US":     {
        "cityName": "Idaho Falls, US",
        "timeZone": "America/Boise",
        "lon": "-112.03414",
        "lat": "43.46658"
    },
    "Nova Granada, BR":     {
        "cityName": "Nova Granada, BR",
        "timeZone": "America/Sao_Paulo",
        "lon": "-49.31417",
        "lat": "-20.53389"
    },
    "Babana, NG":     {
        "cityName": "Babana, NG",
        "timeZone": "Africa/Lagos",
        "lon": "3.81495",
        "lat": "10.42949"
    },
    "Kamienna Góra, PL":     {
        "cityName": "Kamienna Góra, PL",
        "timeZone": "Europe/Warsaw",
        "lon": "16.03037",
        "lat": "50.78314"
    },
    "Ciudad Mante, MX":     {
        "cityName": "Ciudad Mante, MX",
        "timeZone": "America/Monterrey",
        "lon": "-98.9739",
        "lat": "22.74304"
    },
    "Feira de Santana, BR":     {
        "cityName": "Feira de Santana, BR",
        "timeZone": "America/Bahia",
        "lon": "-38.96667",
        "lat": "-12.26667"
    },
    "Santarém, BR":     {
        "cityName": "Santarém, BR",
        "timeZone": "America/Santarem",
        "lon": "-54.70833",
        "lat": "-2.44306"
    },
    "Fuquay-Varina, US":     {
        "cityName": "Fuquay-Varina, US",
        "timeZone": "America/New_York",
        "lon": "-78.80001",
        "lat": "35.58432"
    },
    "Tinley Park, US":     {
        "cityName": "Tinley Park, US",
        "timeZone": "America/Chicago",
        "lon": "-87.78449",
        "lat": "41.57337"
    },
    "Quatro Barras, BR":     {
        "cityName": "Quatro Barras, BR",
        "timeZone": "America/Sao_Paulo",
        "lon": "-49.07694",
        "lat": "-25.36556"
    },
    "Enchanted Hills, US":     {
        "cityName": "Enchanted Hills, US",
        "timeZone": "America/Denver",
        "lon": "-106.59296",
        "lat": "35.33676"
    },
    "East Patchogue, US":     {
        "cityName": "East Patchogue, US",
        "timeZone": "America/New_York",
        "lon": "-72.99622",
        "lat": "40.76704"
    },
    "Silao, MX":     {
        "cityName": "Silao, MX",
        "timeZone": "America/Mexico_City",
        "lon": "-101.42703",
        "lat": "20.94356"
    },
    "Atascadero, US":     {
        "cityName": "Atascadero, US",
        "timeZone": "America/Los_Angeles",
        "lon": "-120.67073",
        "lat": "35.48942"
    },
    "Boa Vista, BR":     {
        "cityName": "Boa Vista, BR",
        "timeZone": "America/Boa_Vista",
        "lon": "-60.67333",
        "lat": "2.81972"
    },
    "Truckee, US":     {
        "cityName": "Truckee, US",
        "timeZone": "America/Los_Angeles",
        "lon": "-120.18325",
        "lat": "39.32796"
    },
    "Gbongan, NG":     {
        "cityName": "Gbongan, NG",
        "timeZone": "Africa/Lagos",
        "lon": "4.35351",
        "lat": "7.47734"
    },
    "Suzano, BR":     {
        "cityName": "Suzano, BR",
        "timeZone": "America/Sao_Paulo",
        "lon": "-46.31083",
        "lat": "-23.5425"
    },
    "Coruripe, BR":     {
        "cityName": "Coruripe, BR",
        "timeZone": "America/Maceio",
        "lon": "-36.17556",
        "lat": "-10.12556"
    },
    "Ferry Pass, US":     {
        "cityName": "Ferry Pass, US",
        "timeZone": "America/Chicago",
        "lon": "-87.21247",
        "lat": "30.5102"
    },
    "Akure, NG":     {
        "cityName": "Akure, NG",
        "timeZone": "Africa/Lagos",
        "lon": "5.19312",
        "lat": "7.25256"
    },
    "Shibukawa, JP":     {
        "cityName": "Shibukawa, JP",
        "timeZone": "Asia/Tokyo",
        "lon": "139",
        "lat": "36.48333"
    },
    "East Longmeadow, US":     {
        "cityName": "East Longmeadow, US",
        "timeZone": "America/New_York",
        "lon": "-72.51259",
        "lat": "42.06454"
    },
    "Togitsu, JP":     {
        "cityName": "Togitsu, JP",
        "timeZone": "Asia/Tokyo",
        "lon": "129.85",
        "lat": "32.83333"
    },
    "Walnut, US":     {
        "cityName": "Walnut, US",
        "timeZone": "America/Los_Angeles",
        "lon": "-117.86534",
        "lat": "34.02029"
    },
    "Long Beach, US":     {
        "cityName": "Long Beach, US",
        "timeZone": "America/Los_Angeles",
        "lon": "-118.18923",
        "lat": "33.76696"
    },
    "Tefé, BR":     {
        "cityName": "Tefé, BR",
        "timeZone": "America/Manaus",
        "lon": "-64.72054",
        "lat": "-3.36841"
    },
    "Daura, NG":     {
        "cityName": "Daura, NG",
        "timeZone": "Africa/Lagos",
        "lon": "11.406",
        "lat": "11.5541"
    },
    "Serrinha, BR":     {
        "cityName": "Serrinha, BR",
        "timeZone": "America/Bahia",
        "lon": "-39.0075",
        "lat": "-11.66417"
    },
    "Temixco, MX":     {
        "cityName": "Temixco, MX",
        "timeZone": "America/Mexico_City",
        "lon": "-99.22537",
        "lat": "18.85254"
    },
    "Gadsden, US":     {
        "cityName": "Gadsden, US",
        "timeZone": "America/Chicago",
        "lon": "-86.00639",
        "lat": "34.01434"
    },
    "Weston, US":     {
        "cityName": "Weston, US",
        "timeZone": "America/Chicago",
        "lon": "-89.54762",
        "lat": "44.8908"
    },
    "Sugar Hill, US":     {
        "cityName": "Sugar Hill, US",
        "timeZone": "America/New_York",
        "lon": "-84.03352",
        "lat": "34.10649"
    },
    "Cloverly, US":     {
        "cityName": "Cloverly, US",
        "timeZone": "America/New_York",
        "lon": "-76.99775",
        "lat": "39.10816"
    },
    "West Jordan, US":     {
        "cityName": "West Jordan, US",
        "timeZone": "America/Denver",
        "lon": "-111.9391",
        "lat": "40.60967"
    },
    "Pinellas Park, US":     {
        "cityName": "Pinellas Park, US",
        "timeZone": "America/New_York",
        "lon": "-82.69954",
        "lat": "27.8428"
    },
    "Dumont, US":     {
        "cityName": "Dumont, US",
        "timeZone": "America/New_York",
        "lon": "-73.99681",
        "lat": "40.94065"
    },
    "Ozubulu, NG":     {
        "cityName": "Ozubulu, NG",
        "timeZone": "Africa/Lagos",
        "lon": "6.85305",
        "lat": "5.95753"
    },
    "Linton Hall, US":     {
        "cityName": "Linton Hall, US",
        "timeZone": "America/New_York",
        "lon": "-77.57499",
        "lat": "38.75984"
    },
    "Austintown, US":     {
        "cityName": "Austintown, US",
        "timeZone": "America/New_York",
        "lon": "-80.76452",
        "lat": "41.10172"
    },
    "Bremerton, US":     {
        "cityName": "Bremerton, US",
        "timeZone": "America/Los_Angeles",
        "lon": "-122.63264",
        "lat": "47.56732"
    },
    "Salinas, BR":     {
        "cityName": "Salinas, BR",
        "timeZone": "America/Sao_Paulo",
        "lon": "-42.29028",
        "lat": "-16.17028"
    },
    "Goianésia, BR":     {
        "cityName": "Goianésia, BR",
        "timeZone": "America/Sao_Paulo",
        "lon": "-49.1175",
        "lat": "-15.3175"
    },
    "West Carson, US":     {
        "cityName": "West Carson, US",
        "timeZone": "America/Los_Angeles",
        "lon": "-118.29257",
        "lat": "33.82168"
    },
    "Manitowoc, US":     {
        "cityName": "Manitowoc, US",
        "timeZone": "America/Chicago",
        "lon": "-87.65758",
        "lat": "44.08861"
    },
    "Juneau, US":     {
        "cityName": "Juneau, US",
        "timeZone": "America/Juneau",
        "lon": "-134.41972",
        "lat": "58.30194"
    },
    "Lędziny, PL":     {
        "cityName": "Lędziny, PL",
        "timeZone": "Europe/Warsaw",
        "lon": "19.13149",
        "lat": "50.14264"
    },
    "Bonney Lake, US":     {
        "cityName": "Bonney Lake, US",
        "timeZone": "America/Los_Angeles",
        "lon": "-122.18651",
        "lat": "47.17705"
    },
    "Ciudad Altamirano, MX":     {
        "cityName": "Ciudad Altamirano, MX",
        "timeZone": "America/Mexico_City",
        "lon": "-100.66965",
        "lat": "18.3582"
    },
    "Maumelle, US":     {
        "cityName": "Maumelle, US",
        "timeZone": "America/Chicago",
        "lon": "-92.40432",
        "lat": "34.86676"
    },
    "Durant, US":     {
        "cityName": "Durant, US",
        "timeZone": "America/Chicago",
        "lon": "-96.37082",
        "lat": "33.99399"
    },
    "Caicó, BR":     {
        "cityName": "Caicó, BR",
        "timeZone": "America/Fortaleza",
        "lon": "-37.09778",
        "lat": "-6.45833"
    },
    "Obudu, NG":     {
        "cityName": "Obudu, NG",
        "timeZone": "Africa/Lagos",
        "lon": "9.16453",
        "lat": "6.66819"
    },
    "North Miami Beach, US":     {
        "cityName": "North Miami Beach, US",
        "timeZone": "America/New_York",
        "lon": "-80.16255",
        "lat": "25.93315"
    },
    "Etobicoke, CA":     {
        "cityName": "Etobicoke, CA",
        "timeZone": "America/Toronto",
        "lon": "-79.56711",
        "lat": "43.65421"
    },
    "Regina, CA":     {
        "cityName": "Regina, CA",
        "timeZone": "America/Regina",
        "lon": "-104.6178",
        "lat": "50.45008"
    },
    "Spokane, US":     {
        "cityName": "Spokane, US",
        "timeZone": "America/Los_Angeles",
        "lon": "-117.42908",
        "lat": "47.65966"
    },
    "Kosai-shi, JP":     {
        "cityName": "Kosai-shi, JP",
        "timeZone": "Asia/Tokyo",
        "lon": "137.53175",
        "lat": "34.7184"
    },
    "Sebastian, US":     {
        "cityName": "Sebastian, US",
        "timeZone": "America/New_York",
        "lon": "-80.47061",
        "lat": "27.81641"
    },
    "Rosedale, US":     {
        "cityName": "Rosedale, US",
        "timeZone": "America/New_York",
        "lon": "-73.73541",
        "lat": "40.66205"
    },
    "Shoreline, US":     {
        "cityName": "Shoreline, US",
        "timeZone": "America/Los_Angeles",
        "lon": "-122.34152",
        "lat": "47.75565"
    },
    "Itapagé, BR":     {
        "cityName": "Itapagé, BR",
        "timeZone": "America/Fortaleza",
        "lon": "-39.58611",
        "lat": "-3.68667"
    },
    "Kansas City, US":     {
        "cityName": "Kansas City, US",
        "timeZone": "America/Chicago",
        "lon": "-94.57857",
        "lat": "39.09973"
    },
    "Alegrete, BR":     {
        "cityName": "Alegrete, BR",
        "timeZone": "America/Sao_Paulo",
        "lon": "-55.79194",
        "lat": "-29.78306"
    },
    "York, US":     {
        "cityName": "York, US",
        "timeZone": "America/New_York",
        "lon": "-76.72774",
        "lat": "39.9626"
    },
    "Piracaia, BR":     {
        "cityName": "Piracaia, BR",
        "timeZone": "America/Sao_Paulo",
        "lon": "-46.35806",
        "lat": "-23.05389"
    },
    "Duncan, CA":     {
        "cityName": "Duncan, CA",
        "timeZone": "America/Vancouver",
        "lon": "-123.70266",
        "lat": "48.78293"
    },
    "Świdnik, PL":     {
        "cityName": "Świdnik, PL",
        "timeZone": "Europe/Warsaw",
        "lon": "22.69621",
        "lat": "51.21898"
    },
    "Maracaju, BR":     {
        "cityName": "Maracaju, BR",
        "timeZone": "America/Campo_Grande",
        "lon": "-55.16833",
        "lat": "-21.61444"
    },
    "Wołomin, PL":     {
        "cityName": "Wołomin, PL",
        "timeZone": "Europe/Warsaw",
        "lon": "21.24207",
        "lat": "52.34006"
    },
    "Tuckahoe, US":     {
        "cityName": "Tuckahoe, US",
        "timeZone": "America/New_York",
        "lon": "-77.55638",
        "lat": "37.59015"
    },
    "Yasugichō, JP":     {
        "cityName": "Yasugichō, JP",
        "timeZone": "Asia/Tokyo",
        "lon": "133.24224",
        "lat": "35.42146"
    },
    "Bay Point, US":     {
        "cityName": "Bay Point, US",
        "timeZone": "America/Los_Angeles",
        "lon": "-121.96163",
        "lat": "38.02909"
    },
    "Nara-shi, JP":     {
        "cityName": "Nara-shi, JP",
        "timeZone": "Asia/Tokyo",
        "lon": "135.80485",
        "lat": "34.68505"
    },
    "Freeport, US":     {
        "cityName": "Freeport, US",
        "timeZone": "America/New_York",
        "lon": "-73.58318",
        "lat": "40.6576"
    },
    "Parnamirim, BR":     {
        "cityName": "Parnamirim, BR",
        "timeZone": "America/Fortaleza",
        "lon": "-35.26278",
        "lat": "-5.91556"
    },
    "Irati, BR":     {
        "cityName": "Irati, BR",
        "timeZone": "America/Sao_Paulo",
        "lon": "-50.65111",
        "lat": "-25.46722"
    },
    "Jalpa de Méndez, MX":     {
        "cityName": "Jalpa de Méndez, MX",
        "timeZone": "America/Mexico_City",
        "lon": "-93.063",
        "lat": "18.17633"
    },
    "Hillsboro, US":     {
        "cityName": "Hillsboro, US",
        "timeZone": "America/Los_Angeles",
        "lon": "-122.98983",
        "lat": "45.52289"
    },
    "Queimados, BR":     {
        "cityName": "Queimados, BR",
        "timeZone": "America/Sao_Paulo",
        "lon": "-43.55528",
        "lat": "-22.71611"
    },
    "São Paulo, BR":     {
        "cityName": "São Paulo, BR",
        "timeZone": "America/Sao_Paulo",
        "lon": "-46.63611",
        "lat": "-23.5475"
    },
    "Ixtaczoquitlán, MX":     {
        "cityName": "Ixtaczoquitlán, MX",
        "timeZone": "America/Mexico_City",
        "lon": "-97.06229",
        "lat": "18.85364"
    },
    "Radom, PL":     {
        "cityName": "Radom, PL",
        "timeZone": "Europe/Warsaw",
        "lon": "21.14714",
        "lat": "51.40253"
    },
    "Ibiá, BR":     {
        "cityName": "Ibiá, BR",
        "timeZone": "America/Sao_Paulo",
        "lon": "-46.53889",
        "lat": "-19.47833"
    },
    "Huilango, MX":     {
        "cityName": "Huilango, MX",
        "timeZone": "America/Mexico_City",
        "lon": "-99.25639",
        "lat": "19.68056"
    },
    "Granby, CA":     {
        "cityName": "Granby, CA",
        "timeZone": "America/Toronto",
        "lon": "-72.73243",
        "lat": "45.40008"
    },
    "Mount Vernon, US":     {
        "cityName": "Mount Vernon, US",
        "timeZone": "America/Los_Angeles",
        "lon": "-122.33405",
        "lat": "48.42122"
    },
    "Lake Ridge, US":     {
        "cityName": "Lake Ridge, US",
        "timeZone": "America/New_York",
        "lon": "-77.29776",
        "lat": "38.68789"
    },
    "Wake Forest, US":     {
        "cityName": "Wake Forest, US",
        "timeZone": "America/New_York",
        "lon": "-78.50972",
        "lat": "35.97987"
    },
    "Nuevo Laredo, MX":     {
        "cityName": "Nuevo Laredo, MX",
        "timeZone": "America/Matamoros",
        "lon": "-99.51639",
        "lat": "27.47629"
    },
    "Santo Amaro, BR":     {
        "cityName": "Santo Amaro, BR",
        "timeZone": "America/Bahia",
        "lon": "-38.71194",
        "lat": "-12.54667"
    },
    "Votuporanga, BR":     {
        "cityName": "Votuporanga, BR",
        "timeZone": "America/Sao_Paulo",
        "lon": "-49.97278",
        "lat": "-20.42278"
    },
    "Ikot Ekpene, NG":     {
        "cityName": "Ikot Ekpene, NG",
        "timeZone": "Africa/Lagos",
        "lon": "7.71481",
        "lat": "5.18194"
    },
    "Naples, US":     {
        "cityName": "Naples, US",
        "timeZone": "America/New_York",
        "lon": "-81.79596",
        "lat": "26.14234"
    },
    "Waldorf, US":     {
        "cityName": "Waldorf, US",
        "timeZone": "America/New_York",
        "lon": "-76.93914",
        "lat": "38.62456"
    },
    "Tecámac de Felipe Villanueva, MX":     {
        "cityName": "Tecámac de Felipe Villanueva, MX",
        "timeZone": "America/Mexico_City",
        "lon": "-98.96833",
        "lat": "19.71306"
    },
    "Pittsburg, US":     {
        "cityName": "Pittsburg, US",
        "timeZone": "America/Los_Angeles",
        "lon": "-121.88468",
        "lat": "38.02798"
    },
    "Balneário Camboriú, BR":     {
        "cityName": "Balneário Camboriú, BR",
        "timeZone": "America/Sao_Paulo",
        "lon": "-48.63472",
        "lat": "-26.99056"
    },
    "Minneapolis, US":     {
        "cityName": "Minneapolis, US",
        "timeZone": "America/Chicago",
        "lon": "-93.26384",
        "lat": "44.97997"
    },
    "Nava, MX":     {
        "cityName": "Nava, MX",
        "timeZone": "America/Monterrey",
        "lon": "-100.76565",
        "lat": "28.42071"
    },
    "Oshawa, CA":     {
        "cityName": "Oshawa, CA",
        "timeZone": "America/Toronto",
        "lon": "-78.84957",
        "lat": "43.90012"
    },
    "Nossa Senhora do Socorro, BR":     {
        "cityName": "Nossa Senhora do Socorro, BR",
        "timeZone": "America/Maceio",
        "lon": "-37.12611",
        "lat": "-10.855"
    },
    "Salmon Creek, US":     {
        "cityName": "Salmon Creek, US",
        "timeZone": "America/Los_Angeles",
        "lon": "-122.64899",
        "lat": "45.71067"
    },
    "Itororó, BR":     {
        "cityName": "Itororó, BR",
        "timeZone": "America/Bahia",
        "lon": "-40.07028",
        "lat": "-15.11694"
    },
    "Rio Rancho, US":     {
        "cityName": "Rio Rancho, US",
        "timeZone": "America/Denver",
        "lon": "-106.66447",
        "lat": "35.23338"
    },
    "Isesaki, JP":     {
        "cityName": "Isesaki, JP",
        "timeZone": "Asia/Tokyo",
        "lon": "139.2",
        "lat": "36.31667"
    },
    "Kawagoe, JP":     {
        "cityName": "Kawagoe, JP",
        "timeZone": "Asia/Tokyo",
        "lon": "139.48528",
        "lat": "35.90861"
    },
    "West Hollywood, US":     {
        "cityName": "West Hollywood, US",
        "timeZone": "America/Los_Angeles",
        "lon": "-118.36174",
        "lat": "34.09001"
    },
    "Los Reyes Acaquilpan, MX":     {
        "cityName": "Los Reyes Acaquilpan, MX",
        "timeZone": "America/Mexico_City",
        "lon": "-98.97707",
        "lat": "19.36357"
    },
    "Eagle Pass, US":     {
        "cityName": "Eagle Pass, US",
        "timeZone": "America/Chicago",
        "lon": "-100.49952",
        "lat": "28.70914"
    },
    "Biloxi, US":     {
        "cityName": "Biloxi, US",
        "timeZone": "America/Chicago",
        "lon": "-88.88531",
        "lat": "30.39603"
    },
    "São João del Rei, BR":     {
        "cityName": "São João del Rei, BR",
        "timeZone": "America/Sao_Paulo",
        "lon": "-44.26167",
        "lat": "-21.13556"
    },
    "São Bernardo do Campo, BR":     {
        "cityName": "São Bernardo do Campo, BR",
        "timeZone": "America/Sao_Paulo",
        "lon": "-46.565",
        "lat": "-23.69389"
    },
    "Ouro Branco, BR":     {
        "cityName": "Ouro Branco, BR",
        "timeZone": "America/Sao_Paulo",
        "lon": "-43.69486",
        "lat": "-20.52334"
    },
    "Birnin Kudu, NG":     {
        "cityName": "Birnin Kudu, NG",
        "timeZone": "Africa/Lagos",
        "lon": "9.47856",
        "lat": "11.45207"
    },
    "Farmington, US":     {
        "cityName": "Farmington, US",
        "timeZone": "America/Denver",
        "lon": "-111.88744",
        "lat": "40.9805"
    },
    "Claremont, US":     {
        "cityName": "Claremont, US",
        "timeZone": "America/Los_Angeles",
        "lon": "-117.71978",
        "lat": "34.09668"
    },
    "Copperas Cove, US":     {
        "cityName": "Copperas Cove, US",
        "timeZone": "America/Chicago",
        "lon": "-97.90308",
        "lat": "31.12406"
    },
    "Weymouth, US":     {
        "cityName": "Weymouth, US",
        "timeZone": "America/New_York",
        "lon": "-70.93977",
        "lat": "42.22093"
    },
    "Caledonia, US":     {
        "cityName": "Caledonia, US",
        "timeZone": "America/Chicago",
        "lon": "-87.92425",
        "lat": "42.8078"
    },
    "Chicago Heights, US":     {
        "cityName": "Chicago Heights, US",
        "timeZone": "America/Chicago",
        "lon": "-87.6356",
        "lat": "41.50615"
    },
    "Rockville, US":     {
        "cityName": "Rockville, US",
        "timeZone": "America/New_York",
        "lon": "-77.15276",
        "lat": "39.084"
    },
    "Casselberry, US":     {
        "cityName": "Casselberry, US",
        "timeZone": "America/New_York",
        "lon": "-81.32785",
        "lat": "28.67778"
    },
    "Berkley, US":     {
        "cityName": "Berkley, US",
        "timeZone": "America/Detroit",
        "lon": "-83.18354",
        "lat": "42.50309"
    },
    "Tsuruoka, JP":     {
        "cityName": "Tsuruoka, JP",
        "timeZone": "Asia/Tokyo",
        "lon": "139.82167",
        "lat": "38.72167"
    },
    "San Luis de la Paz, MX":     {
        "cityName": "San Luis de la Paz, MX",
        "timeZone": "America/Mexico_City",
        "lon": "-100.51736",
        "lat": "21.29771"
    },
    "Funtua, NG":     {
        "cityName": "Funtua, NG",
        "timeZone": "Africa/Lagos",
        "lon": "7.31174",
        "lat": "11.52351"
    },
    "Suitland, US":     {
        "cityName": "Suitland, US",
        "timeZone": "America/New_York",
        "lon": "-76.92386",
        "lat": "38.84872"
    },
    "Leander, US":     {
        "cityName": "Leander, US",
        "timeZone": "America/Chicago",
        "lon": "-97.85307",
        "lat": "30.57881"
    },
    "Terrell, US":     {
        "cityName": "Terrell, US",
        "timeZone": "America/Chicago",
        "lon": "-96.27526",
        "lat": "32.73596"
    },
    "Mount Clemens, US":     {
        "cityName": "Mount Clemens, US",
        "timeZone": "America/Detroit",
        "lon": "-82.87798",
        "lat": "42.59726"
    },
    "Hekinan, JP":     {
        "cityName": "Hekinan, JP",
        "timeZone": "Asia/Tokyo",
        "lon": "136.98333",
        "lat": "34.88333"
    },
    "Schroeder, BR":     {
        "cityName": "Schroeder, BR",
        "timeZone": "America/Sao_Paulo",
        "lon": "-49.07306",
        "lat": "-26.4125"
    },
    "Keystone, US":     {
        "cityName": "Keystone, US",
        "timeZone": "America/New_York",
        "lon": "-82.62121",
        "lat": "28.15585"
    },
    "Lubbock, US":     {
        "cityName": "Lubbock, US",
        "timeZone": "America/Chicago",
        "lon": "-101.85517",
        "lat": "33.57786"
    },
    "Brodósqui, BR":     {
        "cityName": "Brodósqui, BR",
        "timeZone": "America/Sao_Paulo",
        "lon": "-47.65861",
        "lat": "-20.99139"
    },
    "Giżycko, PL":     {
        "cityName": "Giżycko, PL",
        "timeZone": "Europe/Warsaw",
        "lon": "21.76441",
        "lat": "54.03811"
    },
    "Hadano, JP":     {
        "cityName": "Hadano, JP",
        "timeZone": "Asia/Tokyo",
        "lon": "139.22361",
        "lat": "35.37111"
    },
    "Legionowo, PL":     {
        "cityName": "Legionowo, PL",
        "timeZone": "Europe/Warsaw",
        "lon": "20.92664",
        "lat": "52.40149"
    },
    "San Jacinto, US":     {
        "cityName": "San Jacinto, US",
        "timeZone": "America/Los_Angeles",
        "lon": "-116.95864",
        "lat": "33.78391"
    },
    "Toyohama, JP":     {
        "cityName": "Toyohama, JP",
        "timeZone": "Asia/Tokyo",
        "lon": "136.93425",
        "lat": "34.70933"
    },
    "Morada Nova, BR":     {
        "cityName": "Morada Nova, BR",
        "timeZone": "America/Fortaleza",
        "lon": "-38.3725",
        "lat": "-5.10667"
    },
    "Cimarron Hills, US":     {
        "cityName": "Cimarron Hills, US",
        "timeZone": "America/Denver",
        "lon": "-104.69886",
        "lat": "38.85861"
    },
    "Ami, JP":     {
        "cityName": "Ami, JP",
        "timeZone": "Asia/Tokyo",
        "lon": "140.2",
        "lat": "36.03333"
    },
    "La Verne, US":     {
        "cityName": "La Verne, US",
        "timeZone": "America/Los_Angeles",
        "lon": "-117.76784",
        "lat": "34.10084"
    },
    "Ōzu, JP":     {
        "cityName": "Ōzu, JP",
        "timeZone": "Asia/Tokyo",
        "lon": "132.55",
        "lat": "33.5"
    },
    "Santa Rita, BR":     {
        "cityName": "Santa Rita, BR",
        "timeZone": "America/Fortaleza",
        "lon": "-34.97806",
        "lat": "-7.11389"
    },
    "Conceição da Barra, BR":     {
        "cityName": "Conceição da Barra, BR",
        "timeZone": "America/Sao_Paulo",
        "lon": "-39.73222",
        "lat": "-18.59333"
    },
    "Calabasas, US":     {
        "cityName": "Calabasas, US",
        "timeZone": "America/Los_Angeles",
        "lon": "-118.63842",
        "lat": "34.15778"
    },
    "Monte Carmelo, BR":     {
        "cityName": "Monte Carmelo, BR",
        "timeZone": "America/Sao_Paulo",
        "lon": "-47.49861",
        "lat": "-18.72472"
    },
    "Świdwin, PL":     {
        "cityName": "Świdwin, PL",
        "timeZone": "Europe/Warsaw",
        "lon": "15.77671",
        "lat": "53.77464"
    },
    "Anjō, JP":     {
        "cityName": "Anjō, JP",
        "timeZone": "Asia/Tokyo",
        "lon": "137.08054",
        "lat": "34.95828"
    },
    "Muroto-misakicho, JP":     {
        "cityName": "Muroto-misakicho, JP",
        "timeZone": "Asia/Tokyo",
        "lon": "134.16832",
        "lat": "33.28662"
    },
    "Tōgane, JP":     {
        "cityName": "Tōgane, JP",
        "timeZone": "Asia/Tokyo",
        "lon": "140.36667",
        "lat": "35.55"
    },
    "Mauá, BR":     {
        "cityName": "Mauá, BR",
        "timeZone": "America/Sao_Paulo",
        "lon": "-46.46139",
        "lat": "-23.66778"
    },
    "Sunrise Manor, US":     {
        "cityName": "Sunrise Manor, US",
        "timeZone": "America/Los_Angeles",
        "lon": "-115.07306",
        "lat": "36.21108"
    },
    "Kozakai-chō, JP":     {
        "cityName": "Kozakai-chō, JP",
        "timeZone": "Asia/Tokyo",
        "lon": "137.35889",
        "lat": "34.8"
    },
    "Maple Grove, US":     {
        "cityName": "Maple Grove, US",
        "timeZone": "America/Chicago",
        "lon": "-93.45579",
        "lat": "45.07246"
    },
    "Bellevue, US":     {
        "cityName": "Bellevue, US",
        "timeZone": "America/Los_Angeles",
        "lon": "-122.20068",
        "lat": "47.61038"
    },
    "Campo Formoso, BR":     {
        "cityName": "Campo Formoso, BR",
        "timeZone": "America/Bahia",
        "lon": "-40.32139",
        "lat": "-10.5075"
    },
    "Kirksville, US":     {
        "cityName": "Kirksville, US",
        "timeZone": "America/Chicago",
        "lon": "-92.58325",
        "lat": "40.19475"
    },
    "Taquaritinga, BR":     {
        "cityName": "Taquaritinga, BR",
        "timeZone": "America/Sao_Paulo",
        "lon": "-48.50472",
        "lat": "-21.40611"
    },
    "Greenfield, US":     {
        "cityName": "Greenfield, US",
        "timeZone": "America/Los_Angeles",
        "lon": "-121.24381",
        "lat": "36.3208"
    },
    "Santa Catarina, MX":     {
        "cityName": "Santa Catarina, MX",
        "timeZone": "America/Monterrey",
        "lon": "-100.45813",
        "lat": "25.67325"
    },
    "Sioux City, US":     {
        "cityName": "Sioux City, US",
        "timeZone": "America/Chicago",
        "lon": "-96.40031",
        "lat": "42.49999"
    },
    "Phoenix, US":     {
        "cityName": "Phoenix, US",
        "timeZone": "America/Phoenix",
        "lon": "-112.07404",
        "lat": "33.44838"
    },
    "Caruaru, BR":     {
        "cityName": "Caruaru, BR",
        "timeZone": "America/Recife",
        "lon": "-35.97611",
        "lat": "-8.28333"
    },
    "Nishiwaki, JP":     {
        "cityName": "Nishiwaki, JP",
        "timeZone": "Asia/Tokyo",
        "lon": "134.97407",
        "lat": "34.98419"
    },
    "Inazawa, JP":     {
        "cityName": "Inazawa, JP",
        "timeZone": "Asia/Tokyo",
        "lon": "136.78333",
        "lat": "35.25"
    },
    "Sidney, US":     {
        "cityName": "Sidney, US",
        "timeZone": "America/New_York",
        "lon": "-84.1555",
        "lat": "40.28422"
    },
    "Wodzisław Śląski, PL":     {
        "cityName": "Wodzisław Śląski, PL",
        "timeZone": "Europe/Warsaw",
        "lon": "18.47205",
        "lat": "50.00377"
    },
    "Alliance, US":     {
        "cityName": "Alliance, US",
        "timeZone": "America/New_York",
        "lon": "-81.10593",
        "lat": "40.91534"
    },
    "Maple Heights, US":     {
        "cityName": "Maple Heights, US",
        "timeZone": "America/New_York",
        "lon": "-81.56596",
        "lat": "41.41533"
    },
    "Edosaki, JP":     {
        "cityName": "Edosaki, JP",
        "timeZone": "Asia/Tokyo",
        "lon": "140.31667",
        "lat": "35.95"
    },
    "Immokalee, US":     {
        "cityName": "Immokalee, US",
        "timeZone": "America/New_York",
        "lon": "-81.4173",
        "lat": "26.41869"
    },
    "São José dos Campos, BR":     {
        "cityName": "São José dos Campos, BR",
        "timeZone": "America/Sao_Paulo",
        "lon": "-45.88694",
        "lat": "-23.17944"
    },
    "Petrolina, BR":     {
        "cityName": "Petrolina, BR",
        "timeZone": "America/Recife",
        "lon": "-40.50083",
        "lat": "-9.39861"
    },
    "Noda, JP":     {
        "cityName": "Noda, JP",
        "timeZone": "Asia/Tokyo",
        "lon": "139.86793",
        "lat": "35.94897"
    },
    "Greater Sudbury, CA":     {
        "cityName": "Greater Sudbury, CA",
        "timeZone": "America/Toronto",
        "lon": "-80.99001",
        "lat": "46.49"
    },
    "Highland Springs, US":     {
        "cityName": "Highland Springs, US",
        "timeZone": "America/New_York",
        "lon": "-77.32776",
        "lat": "37.54598"
    },
    "Dolton, US":     {
        "cityName": "Dolton, US",
        "timeZone": "America/Chicago",
        "lon": "-87.60727",
        "lat": "41.63892"
    },
    "Balsas, BR":     {
        "cityName": "Balsas, BR",
        "timeZone": "America/Fortaleza",
        "lon": "-46.03556",
        "lat": "-7.5325"
    },
    "Lafiagi, NG":     {
        "cityName": "Lafiagi, NG",
        "timeZone": "Africa/Lagos",
        "lon": "5.41641",
        "lat": "8.85299"
    },
    "Whitehorse, CA":     {
        "cityName": "Whitehorse, CA",
        "timeZone": "America/Whitehorse",
        "lon": "-135.05375",
        "lat": "60.71611"
    },
    "Sycamore, US":     {
        "cityName": "Sycamore, US",
        "timeZone": "America/Chicago",
        "lon": "-88.68675",
        "lat": "41.98892"
    },
    "Eugene, US":     {
        "cityName": "Eugene, US",
        "timeZone": "America/Los_Angeles",
        "lon": "-123.08675",
        "lat": "44.05207"
    },
    "Apucarana, BR":     {
        "cityName": "Apucarana, BR",
        "timeZone": "America/Sao_Paulo",
        "lon": "-51.46083",
        "lat": "-23.55083"
    },
    "Katsuura, JP":     {
        "cityName": "Katsuura, JP",
        "timeZone": "Asia/Tokyo",
        "lon": "140.31507",
        "lat": "35.14621"
    },
    "Żywiec, PL":     {
        "cityName": "Żywiec, PL",
        "timeZone": "Europe/Warsaw",
        "lon": "19.19243",
        "lat": "49.68529"
    },
    "Randallstown, US":     {
        "cityName": "Randallstown, US",
        "timeZone": "America/New_York",
        "lon": "-76.79525",
        "lat": "39.36733"
    },
    "Burbank, US":     {
        "cityName": "Burbank, US",
        "timeZone": "America/Los_Angeles",
        "lon": "-118.30897",
        "lat": "34.18084"
    },
    "Lakeland, US":     {
        "cityName": "Lakeland, US",
        "timeZone": "America/New_York",
        "lon": "-81.9498",
        "lat": "28.03947"
    },
    "Sumoto, JP":     {
        "cityName": "Sumoto, JP",
        "timeZone": "Asia/Tokyo",
        "lon": "134.9",
        "lat": "34.35"
    },
    "Bogatynia, PL":     {
        "cityName": "Bogatynia, PL",
        "timeZone": "Europe/Warsaw",
        "lon": "14.95634",
        "lat": "50.90747"
    },
    "Mascote, BR":     {
        "cityName": "Mascote, BR",
        "timeZone": "America/Bahia",
        "lon": "-39.3025",
        "lat": "-15.56306"
    },
    "Edina, US":     {
        "cityName": "Edina, US",
        "timeZone": "America/Chicago",
        "lon": "-93.34995",
        "lat": "44.88969"
    },
    "Barra do Corda, BR":     {
        "cityName": "Barra do Corda, BR",
        "timeZone": "America/Fortaleza",
        "lon": "-45.23693",
        "lat": "-5.50308"
    },
    "Mixquiahuala de Juarez, MX":     {
        "cityName": "Mixquiahuala de Juarez, MX",
        "timeZone": "America/Mexico_City",
        "lon": "-99.21396",
        "lat": "20.23031"
    },
    "Clermont, US":     {
        "cityName": "Clermont, US",
        "timeZone": "America/New_York",
        "lon": "-81.77285",
        "lat": "28.54944"
    },
    "Pikesville, US":     {
        "cityName": "Pikesville, US",
        "timeZone": "America/New_York",
        "lon": "-76.72247",
        "lat": "39.37427"
    },
    "Tottori, JP":     {
        "cityName": "Tottori, JP",
        "timeZone": "Asia/Tokyo",
        "lon": "134.23333",
        "lat": "35.5"
    },
    "Commerce City, US":     {
        "cityName": "Commerce City, US",
        "timeZone": "America/Denver",
        "lon": "-104.93387",
        "lat": "39.80832"
    },
    "Pyskowice, PL":     {
        "cityName": "Pyskowice, PL",
        "timeZone": "Europe/Warsaw",
        "lon": "18.63333",
        "lat": "50.4"
    },
    "Wolf Trap, US":     {
        "cityName": "Wolf Trap, US",
        "timeZone": "America/New_York",
        "lon": "-77.28609",
        "lat": "38.93983"
    },
    "Kachia, NG":     {
        "cityName": "Kachia, NG",
        "timeZone": "Africa/Lagos",
        "lon": "7.95407",
        "lat": "9.87342"
    },
    "New Glasgow, CA":     {
        "cityName": "New Glasgow, CA",
        "timeZone": "America/Halifax",
        "lon": "-62.64863",
        "lat": "45.58344"
    },
    "Hatogaya-honchō, JP":     {
        "cityName": "Hatogaya-honchō, JP",
        "timeZone": "Asia/Tokyo",
        "lon": "139.7425",
        "lat": "35.83314"
    },
    "Yokohama, JP":     {
        "cityName": "Yokohama, JP",
        "timeZone": "Asia/Tokyo",
        "lon": "139.65",
        "lat": "35.43333"
    },
    "Gomez Palacio, MX":     {
        "cityName": "Gomez Palacio, MX",
        "timeZone": "America/Monterrey",
        "lon": "-103.49588",
        "lat": "25.56985"
    },
    "East Honolulu, US":     {
        "cityName": "East Honolulu, US",
        "timeZone": "Pacific/Honolulu",
        "lon": "-157.71734",
        "lat": "21.28906"
    },
    "Ueda, JP":     {
        "cityName": "Ueda, JP",
        "timeZone": "Asia/Tokyo",
        "lon": "138.28161",
        "lat": "36.40265"
    },
    "Oregon City, US":     {
        "cityName": "Oregon City, US",
        "timeZone": "America/Los_Angeles",
        "lon": "-122.60676",
        "lat": "45.35734"
    },
    "Houma, US":     {
        "cityName": "Houma, US",
        "timeZone": "America/Chicago",
        "lon": "-90.71953",
        "lat": "29.59577"
    },
    "Raytown, US":     {
        "cityName": "Raytown, US",
        "timeZone": "America/Chicago",
        "lon": "-94.46356",
        "lat": "39.00862"
    },
    "Pennsauken, US":     {
        "cityName": "Pennsauken, US",
        "timeZone": "America/New_York",
        "lon": "-75.05795",
        "lat": "39.95622"
    },
    "Lawrence, US":     {
        "cityName": "Lawrence, US",
        "timeZone": "America/New_York",
        "lon": "-71.16311",
        "lat": "42.70704"
    },
    "Camocim, BR":     {
        "cityName": "Camocim, BR",
        "timeZone": "America/Fortaleza",
        "lon": "-40.84111",
        "lat": "-2.90222"
    },
    "Kamifukuoka, JP":     {
        "cityName": "Kamifukuoka, JP",
        "timeZone": "Asia/Tokyo",
        "lon": "139.51369",
        "lat": "35.87266"
    },
    "Okazaki, JP":     {
        "cityName": "Okazaki, JP",
        "timeZone": "Asia/Tokyo",
        "lon": "137.16667",
        "lat": "34.95"
    },
    "Fussa, JP":     {
        "cityName": "Fussa, JP",
        "timeZone": "Asia/Tokyo",
        "lon": "139.32361",
        "lat": "35.73667"
    },
    "Chiapa de Corzo, MX":     {
        "cityName": "Chiapa de Corzo, MX",
        "timeZone": "America/Mexico_City",
        "lon": "-93.01184",
        "lat": "16.7077"
    },
    "Canela, BR":     {
        "cityName": "Canela, BR",
        "timeZone": "America/Sao_Paulo",
        "lon": "-50.81357",
        "lat": "-29.35622"
    },
    "Shibushi, JP":     {
        "cityName": "Shibushi, JP",
        "timeZone": "Asia/Tokyo",
        "lon": "131.105",
        "lat": "31.46667"
    },
    "Barra de São Francisco, BR":     {
        "cityName": "Barra de São Francisco, BR",
        "timeZone": "America/Sao_Paulo",
        "lon": "-40.89083",
        "lat": "-18.755"
    },
    "Ōtsu, JP":     {
        "cityName": "Ōtsu, JP",
        "timeZone": "Asia/Tokyo",
        "lon": "135.86667",
        "lat": "35"
    },
    "Terrazas del Valle, MX":     {
        "cityName": "Terrazas del Valle, MX",
        "timeZone": "America/Tijuana",
        "lon": "-116.82667",
        "lat": "32.4875"
    },
    "Brenham, US":     {
        "cityName": "Brenham, US",
        "timeZone": "America/Chicago",
        "lon": "-96.39774",
        "lat": "30.16688"
    },
    "Mahwah, US":     {
        "cityName": "Mahwah, US",
        "timeZone": "America/New_York",
        "lon": "-74.14376",
        "lat": "41.08871"
    },
    "Biguaçu, BR":     {
        "cityName": "Biguaçu, BR",
        "timeZone": "America/Sao_Paulo",
        "lon": "-48.65556",
        "lat": "-27.49417"
    },
    "Ancaster, CA":     {
        "cityName": "Ancaster, CA",
        "timeZone": "America/Toronto",
        "lon": "-79.98716",
        "lat": "43.21806"
    },
    "Oak Forest, US":     {
        "cityName": "Oak Forest, US",
        "timeZone": "America/Chicago",
        "lon": "-87.74394",
        "lat": "41.60281"
    },
    "Hilliard, US":     {
        "cityName": "Hilliard, US",
        "timeZone": "America/New_York",
        "lon": "-83.15825",
        "lat": "40.0334"
    },
    "São Miguel dos Campos, BR":     {
        "cityName": "São Miguel dos Campos, BR",
        "timeZone": "America/Maceio",
        "lon": "-36.09361",
        "lat": "-9.78111"
    },
    "Formosa, BR":     {
        "cityName": "Formosa, BR",
        "timeZone": "America/Sao_Paulo",
        "lon": "-47.33444",
        "lat": "-15.53722"
    },
    "Arari, BR":     {
        "cityName": "Arari, BR",
        "timeZone": "America/Fortaleza",
        "lon": "-44.78",
        "lat": "-3.45361"
    },
    "Seattle, US":     {
        "cityName": "Seattle, US",
        "timeZone": "America/Los_Angeles",
        "lon": "-122.33207",
        "lat": "47.60621"
    },
    "Maryville, US":     {
        "cityName": "Maryville, US",
        "timeZone": "America/New_York",
        "lon": "-83.97046",
        "lat": "35.75647"
    },
    "Ciudad Serdán, MX":     {
        "cityName": "Ciudad Serdán, MX",
        "timeZone": "America/Mexico_City",
        "lon": "-97.44643",
        "lat": "18.98856"
    },
    "Nasarawa, NG":     {
        "cityName": "Nasarawa, NG",
        "timeZone": "Africa/Lagos",
        "lon": "7.70821",
        "lat": "8.53895"
    },
    "Bandeirantes, BR":     {
        "cityName": "Bandeirantes, BR",
        "timeZone": "America/Sao_Paulo",
        "lon": "-50.3675",
        "lat": "-23.11"
    },
    "Chula Vista, US":     {
        "cityName": "Chula Vista, US",
        "timeZone": "America/Los_Angeles",
        "lon": "-117.0842",
        "lat": "32.64005"
    },
    "Culiacán, MX":     {
        "cityName": "Culiacán, MX",
        "timeZone": "America/Mazatlan",
        "lon": "-107.38782",
        "lat": "24.79032"
    },
    "Sapporo, JP":     {
        "cityName": "Sapporo, JP",
        "timeZone": "Asia/Tokyo",
        "lon": "141.35",
        "lat": "43.06667"
    },
    "Araranguá, BR":     {
        "cityName": "Araranguá, BR",
        "timeZone": "America/Sao_Paulo",
        "lon": "-49.49538",
        "lat": "-28.93575"
    },
    "Koshigaya, JP":     {
        "cityName": "Koshigaya, JP",
        "timeZone": "Asia/Tokyo",
        "lon": "139.78916",
        "lat": "35.89035"
    },
    "Huixquilucan, MX":     {
        "cityName": "Huixquilucan, MX",
        "timeZone": "America/Mexico_City",
        "lon": "-99.35016",
        "lat": "19.35985"
    },
    "Highlands Ranch, US":     {
        "cityName": "Highlands Ranch, US",
        "timeZone": "America/Denver",
        "lon": "-104.96943",
        "lat": "39.55388"
    },
    "Oleśnica, PL":     {
        "cityName": "Oleśnica, PL",
        "timeZone": "Europe/Warsaw",
        "lon": "17.38986",
        "lat": "51.21338"
    },
    "Delano, US":     {
        "cityName": "Delano, US",
        "timeZone": "America/Los_Angeles",
        "lon": "-119.24705",
        "lat": "35.76884"
    },
    "Ijuí, BR":     {
        "cityName": "Ijuí, BR",
        "timeZone": "America/Sao_Paulo",
        "lon": "-53.91472",
        "lat": "-28.38778"
    },
    "Winder, US":     {
        "cityName": "Winder, US",
        "timeZone": "America/New_York",
        "lon": "-83.72017",
        "lat": "33.99261"
    },
    "Limerick, US":     {
        "cityName": "Limerick, US",
        "timeZone": "America/New_York",
        "lon": "-75.52212",
        "lat": "40.23093"
    },
    "Sobue, JP":     {
        "cityName": "Sobue, JP",
        "timeZone": "Asia/Tokyo",
        "lon": "136.71667",
        "lat": "35.25"
    },
    "Elele, NG":     {
        "cityName": "Elele, NG",
        "timeZone": "Africa/Lagos",
        "lon": "6.81411",
        "lat": "5.1009"
    },
    "Nagareyama, JP":     {
        "cityName": "Nagareyama, JP",
        "timeZone": "Asia/Tokyo",
        "lon": "139.90266",
        "lat": "35.8563"
    },
    "Ise, JP":     {
        "cityName": "Ise, JP",
        "timeZone": "Asia/Tokyo",
        "lon": "136.7",
        "lat": "34.48333"
    },
    "Valinhos, BR":     {
        "cityName": "Valinhos, BR",
        "timeZone": "America/Sao_Paulo",
        "lon": "-46.99583",
        "lat": "-22.97056"
    },